hospital_id,hospital_name,city,tier,speciality,rating,nabh_accredited,type,cost_index,pincode,latitude,longitude
1,Metro Cardiology Hospital,Mumbai,Tier-1,Cardiology,3.4,TRUE,medium,0.432,400093,18.941497,72.903833
2,Sahyadri Gastroenterology Super Speciality Hospital,Mumbai,Tier-1,Gastroenterology,3.5,FALSE,medium,0.404,400005,18.931522,72.860996
3,Mumbai Gynaecology Clinic,Mumbai,Tier-1,Gynaecology,4.6,TRUE,high,0.927,400050,19.129021,72.82055
4,Poona Dermatology Medical Center,Mumbai,Tier-1,Dermatology,3.7,FALSE,medium,0.576,400101,18.984372,72.85468
5,Mumbai Cardiology Healthcare,Mumbai,Tier-1,Cardiology,3.7,FALSE,medium,0.55,400070,18.96411,72.946335
6,National Dermatology Institute,Mumbai,Tier-1,Dermatology,4.2,FALSE,medium,0.63,400020,19.045058,72.886085
7,Mumbai Orthopedics Clinic,Mumbai,Tier-1,Orthopedics,4.6,TRUE,high,0.877,400005,18.946337,72.918124
8,Metro ENT Clinic,Mumbai,Tier-1,ENT,3.3,FALSE,low,0.068,400002,19.096755,72.894675
9,Care General Medicine Clinic,Mumbai,Tier-1,General Medicine,3.8,FALSE,medium,0.667,400002,18.928405,72.813763
10,Care Ophthalmology Medical Center,Mumbai,Tier-1,Ophthalmology,3.9,TRUE,medium,0.412,400101,19.167271,72.8193
11,City Pulmonology Medical Center,Mumbai,Tier-1,Pulmonology,4.2,TRUE,high,0.739,400002,19.181883,72.862675
12,Sri Pediatrics Hospital,Mumbai,Tier-1,Pediatrics,3.8,TRUE,medium,0.67,400002,19.128434,72.936663
13,Metro Urology Super Speciality Hospital,Mumbai,Tier-1,Urology,3.5,FALSE,low,0.281,400050,19.016334,72.809093
14,Kamineni Dermatology Clinic,Mumbai,Tier-1,Dermatology,4,FALSE,medium,0.501,400101,19.007994,72.910977
15,Ruby Dermatology Institute,Mumbai,Tier-1,Dermatology,4.4,TRUE,high,0.912,400002,19.131056,72.849221
16,Sterling Ophthalmology Institute,Mumbai,Tier-1,Ophthalmology,3.5,FALSE,low,0.347,400001,18.935704,72.866322
17,Global Gynaecology Institute,Mumbai,Tier-1,Gynaecology,3,FALSE,low,0.088,400101,19.121885,72.878854
18,Continental General Medicine Medical Center,Mumbai,Tier-1,General Medicine,3.6,FALSE,medium,0.408,400020,19.123457,72.815552
19,Mumbai Gynaecology Healthcare,Mumbai,Tier-1,Gynaecology,4.4,TRUE,high,0.806,400070,18.984053,72.864211
20,Continental General Medicine Medical Center,Mumbai,Tier-1,General Medicine,4.1,FALSE,medium,0.655,400001,19.017885,72.876748
21,Mumbai Orthopedics Healthcare,Mumbai,Tier-1,Orthopedics,4.5,TRUE,high,0.831,400002,19.073762,72.88666
22,Global Ophthalmology Super Speciality Hospital,Mumbai,Tier-1,Ophthalmology,4.3,TRUE,high,0.838,400005,19.093361,72.897965
23,Unity Neurology Hospital,Mumbai,Tier-1,Neurology,3.5,FALSE,medium,0.514,400005,19.051706,72.8417
24,City General Medicine Hospital,Mumbai,Tier-1,General Medicine,4.3,TRUE,high,0.737,400002,18.981345,72.909301
25,Poona Ophthalmology Hospital,Mumbai,Tier-1,Ophthalmology,4,TRUE,medium,0.55,400101,18.917287,72.944789
26,SAL Gynaecology Super Speciality Hospital,Mumbai,Tier-1,Gynaecology,4.5,TRUE,high,0.915,400101,18.978042,72.854924
27,Mumbai Gastroenterology Clinic,Mumbai,Tier-1,Gastroenterology,3.7,FALSE,medium,0.627,400070,19.127309,72.809267
28,Ruby Dermatology Institute,Mumbai,Tier-1,Dermatology,3.5,TRUE,medium,0.547,400101,18.971903,72.845102
29,KIMS ENT Medical Center,Mumbai,Tier-1,ENT,3.8,TRUE,medium,0.413,400020,18.99639,72.935446
30,City Gynaecology Medical Center,Mumbai,Tier-1,Gynaecology,4.2,TRUE,high,0.879,400002,19.044973,72.907594
31,SAL Gynaecology Clinic,Mumbai,Tier-1,Gynaecology,4.4,TRUE,high,0.838,400002,18.925222,72.818876
32,Mumbai Urology Healthcare,Mumbai,Tier-1,Urology,4.2,TRUE,high,0.734,400070,19.105584,72.833857
33,Sahyadri General Medicine Super Speciality Hospital,Mumbai,Tier-1,General Medicine,4.7,TRUE,high,0.969,400050,19.086929,72.923011
34,Mumbai General Medicine Hospital,Mumbai,Tier-1,General Medicine,4,TRUE,medium,0.647,400101,18.916148,72.817379
35,Care Ophthalmology Super Speciality Hospital,Mumbai,Tier-1,Ophthalmology,4.1,FALSE,high,0.823,400050,19.178278,72.906721
36,Rainbow Orthopedics Super Speciality Hospital,Mumbai,Tier-1,Orthopedics,3.9,FALSE,medium,0.506,400001,19.130516,72.893622
37,Prime General Medicine Super Speciality Hospital,Mumbai,Tier-1,General Medicine,4.4,TRUE,high,0.952,400005,19.061343,72.898469
38,Sahyadri Pediatrics Hospital,Mumbai,Tier-1,Pediatrics,4.7,TRUE,high,0.965,400005,18.911931,72.898581
39,Ruby Orthopedics Medical Center,Mumbai,Tier-1,Orthopedics,3.8,TRUE,medium,0.496,400020,18.974361,72.926405
40,Mumbai Neurology Super Speciality Hospital,Mumbai,Tier-1,Neurology,4.4,TRUE,high,0.823,400093,18.938758,72.920787
41,Sahyadri General Medicine Hospital,Mumbai,Tier-1,General Medicine,4.2,TRUE,high,0.865,400005,18.969659,72.82027
42,Fortis Gastroenterology Medical Center,Mumbai,Tier-1,Gastroenterology,4.5,TRUE,high,0.812,400101,19.003581,72.861073
43,Mumbai Pediatrics Hospital,Mumbai,Tier-1,Pediatrics,3.6,FALSE,low,0.371,400050,19.181048,72.803646
44,Ruby General Medicine Healthcare,Mumbai,Tier-1,General Medicine,4.2,TRUE,medium,0.603,400020,19.122976,72.807646
45,Kamineni Orthopedics Hospital,Mumbai,Tier-1,Orthopedics,3.2,FALSE,low,0.109,400093,18.977269,72.813192
46,City Orthopedics Institute,Mumbai,Tier-1,Orthopedics,3.8,TRUE,medium,0.608,400070,19.11086,72.931927
47,Care Dermatology Hospital,Mumbai,Tier-1,Dermatology,4.2,TRUE,medium,0.618,400002,19.03197,72.861781
48,Unity Gastroenterology Clinic,Mumbai,Tier-1,Gastroenterology,3.1,FALSE,low,0.027,400005,19.125717,72.826754
49,Poona Nephrology Institute,Mumbai,Tier-1,Nephrology,3.3,FALSE,low,0.256,400005,19.068636,72.805627
50,Ruby Cardiology Hospital,Mumbai,Tier-1,Cardiology,3.8,FALSE,medium,0.402,400050,19.156884,72.885053
51,Global Cardiology Institute,Mumbai,Tier-1,Cardiology,3.8,TRUE,medium,0.567,400020,19.080573,72.921805
52,Mumbai Nephrology Medical Center,Mumbai,Tier-1,Nephrology,3.4,FALSE,low,0.255,400050,18.926066,72.900273
53,Mumbai Psychiatry Medical Center,Mumbai,Tier-1,Psychiatry,3,FALSE,low,0.047,400002,18.923374,72.926847
54,Continental Urology Hospital,Mumbai,Tier-1,Urology,4,TRUE,high,0.725,400093,19.172925,72.873051
55,City Pulmonology Hospital,Mumbai,Tier-1,Pulmonology,4,FALSE,medium,0.584,400070,18.941612,72.899831
56,Apollo ENT Hospital,Mumbai,Tier-1,ENT,4,TRUE,high,0.711,400005,19.162935,72.891859
57,Continental Cardiology Clinic,Mumbai,Tier-1,Cardiology,3.9,TRUE,medium,0.501,400070,18.989692,72.943693
58,Apollo Pediatrics Institute,Mumbai,Tier-1,Pediatrics,3.3,FALSE,low,0.015,400005,19.153631,72.906619
59,Deenanath Ophthalmology Institute,Mumbai,Tier-1,Ophthalmology,4.2,TRUE,high,0.755,400070,19.191367,72.809952
60,Mumbai General Medicine Medical Center,Mumbai,Tier-1,General Medicine,4.2,FALSE,high,0.75,400002,19.191755,72.823694
61,Poona Urology Clinic,Mumbai,Tier-1,Urology,3.1,TRUE,low,0.024,400005,18.976844,72.938493
62,Mumbai Ophthalmology Institute,Mumbai,Tier-1,Ophthalmology,3.9,FALSE,medium,0.501,400002,19.027507,72.868059
63,Mumbai Nephrology Clinic,Mumbai,Tier-1,Nephrology,3,FALSE,low,0.147,400070,19.083662,72.86278
64,Fortis ENT Clinic,Mumbai,Tier-1,ENT,4.2,TRUE,high,0.901,400070,18.985723,72.852593
65,Mumbai Psychiatry Institute,Mumbai,Tier-1,Psychiatry,3.5,FALSE,medium,0.441,400070,19.17145,72.805188
66,Mumbai Dermatology Hospital,Mumbai,Tier-1,Dermatology,3.7,FALSE,medium,0.529,400070,19.053396,72.896698
67,Care Neurology Institute,Mumbai,Tier-1,Neurology,4.1,TRUE,high,0.798,400001,19.047475,72.933164
68,Care Orthopedics Institute,Mumbai,Tier-1,Orthopedics,4.3,TRUE,high,0.916,400050,19.037888,72.945699
69,Mumbai Gastroenterology Healthcare,Mumbai,Tier-1,Gastroenterology,4.6,TRUE,high,0.975,400101,18.969857,72.870933
70,City Orthopedics Medical Center,Mumbai,Tier-1,Orthopedics,3.5,TRUE,medium,0.447,400101,18.919239,72.828257
71,Unity Pediatrics Clinic,Mumbai,Tier-1,Pediatrics,4.5,TRUE,high,0.887,400001,19.076705,72.923065
72,Mumbai Neurology Hospital,Mumbai,Tier-1,Neurology,4.3,TRUE,high,0.745,400070,18.993536,72.833622
73,Poona Pediatrics Clinic,Mumbai,Tier-1,Pediatrics,3,FALSE,low,0.091,400101,19.120889,72.862519
74,Care Neurology Medical Center,Mumbai,Tier-1,Neurology,4.3,FALSE,high,0.946,400070,19.163599,72.880043
75,Mumbai Nephrology Medical Center,Mumbai,Tier-1,Nephrology,3.5,FALSE,low,0.387,400101,19.123079,72.865382
76,City Pediatrics Medical Center,Mumbai,Tier-1,Pediatrics,3.8,FALSE,medium,0.497,400093,18.999764,72.822938
77,Yashoda Oncology Hospital,Mumbai,Tier-1,Oncology,4.3,TRUE,high,0.726,400070,18.903171,72.857335
78,HCG Cardiology Clinic,Mumbai,Tier-1,Cardiology,4,FALSE,medium,0.518,400050,18.901063,72.931941
79,Poona Gastroenterology Hospital,Mumbai,Tier-1,Gastroenterology,4.1,TRUE,high,0.864,400020,19.191355,72.929623
80,SAL Pediatrics Medical Center,Mumbai,Tier-1,Pediatrics,3.8,TRUE,medium,0.593,400070,19.031568,72.919035
81,Care ENT Institute,Mumbai,Tier-1,ENT,3.2,TRUE,low,0.009,400005,19.159853,72.806389
82,Unity Psychiatry Healthcare,Mumbai,Tier-1,Psychiatry,4.5,TRUE,high,0.921,400002,19.083282,72.861266
83,Yashoda Gastroenterology Medical Center,Mumbai,Tier-1,Gastroenterology,3.4,TRUE,low,0.286,400070,19.064667,72.917202
84,Care Cardiology Healthcare,Mumbai,Tier-1,Cardiology,4.2,TRUE,high,0.955,400070,19.044209,72.893388
85,Mumbai Pediatrics Medical Center,Mumbai,Tier-1,Pediatrics,4,FALSE,medium,0.681,400001,19.152984,72.855242
86,Deenanath Pediatrics Clinic,Mumbai,Tier-1,Pediatrics,4.2,TRUE,high,0.84,400070,19.051587,72.864907
87,National Orthopedics Super Speciality Hospital,Mumbai,Tier-1,Orthopedics,3.7,FALSE,low,0.363,400001,19.003038,72.90962
88,Mumbai Urology Hospital,Mumbai,Tier-1,Urology,3.4,TRUE,medium,0.444,400002,19.094893,72.80925
89,Apollo Psychiatry Healthcare,Mumbai,Tier-1,Psychiatry,4.1,FALSE,high,0.796,400050,18.906517,72.920334
90,Deenanath Urology Healthcare,Mumbai,Tier-1,Urology,4.2,TRUE,high,0.741,400001,19.108249,72.930582
91,Mumbai Nephrology Clinic,Mumbai,Tier-1,Nephrology,4.2,TRUE,high,0.865,400002,19.130725,72.912198
92,Metro Orthopedics Super Speciality Hospital,Mumbai,Tier-1,Orthopedics,3,FALSE,low,0.022,400050,19.14061,72.813691
93,Continental Oncology Super Speciality Hospital,Mumbai,Tier-1,Oncology,3.9,FALSE,medium,0.41,400005,19.125596,72.904174
94,Mumbai General Medicine Institute,Mumbai,Tier-1,General Medicine,4.4,TRUE,high,0.817,400093,19.142458,72.935641
95,Mumbai Dermatology Hospital,Mumbai,Tier-1,Dermatology,3.3,TRUE,low,0.082,400093,19.080827,72.87449
96,Care Oncology Hospital,Mumbai,Tier-1,Oncology,3.4,FALSE,low,0.367,400002,18.932206,72.910797
97,Mumbai General Medicine Hospital,Mumbai,Tier-1,General Medicine,3.7,FALSE,medium,0.436,400050,18.932579,72.845924
98,Global Psychiatry Hospital,Mumbai,Tier-1,Psychiatry,4.2,TRUE,high,0.815,400070,19.164728,72.935701
99,Sri Gynaecology Institute,Mumbai,Tier-1,Gynaecology,4.5,FALSE,high,0.799,400050,18.915354,72.849603
100,Sterling Gastroenterology Healthcare,Mumbai,Tier-1,Gastroenterology,4.1,TRUE,high,0.853,400020,19.135305,72.814731
101,National Cardiology Institute,Mumbai,Tier-1,Cardiology,4.2,TRUE,high,0.777,400101,18.977018,72.932122
102,Mumbai Psychiatry Medical Center,Mumbai,Tier-1,Psychiatry,3.8,FALSE,medium,0.682,400093,18.937371,72.893527
103,Poona Pulmonology Institute,Mumbai,Tier-1,Pulmonology,3.6,FALSE,medium,0.508,400020,19.089344,72.923392
104,Apollo General Medicine Hospital,Mumbai,Tier-1,General Medicine,3.3,FALSE,low,0.134,400070,19.155106,72.895204
105,Sri Orthopedics Super Speciality Hospital,Mumbai,Tier-1,Orthopedics,3.1,TRUE,low,0.159,400093,18.995055,72.869959
106,Care Oncology Institute,Mumbai,Tier-1,Oncology,4.3,TRUE,high,0.745,400050,18.986731,72.822705
107,Mumbai ENT Hospital,Mumbai,Tier-1,ENT,4.1,TRUE,high,0.846,400070,19.161068,72.853431
108,Poona Pulmonology Clinic,Mumbai,Tier-1,Pulmonology,3.7,FALSE,low,0.362,400005,18.923602,72.846719
109,Mumbai Gynaecology Healthcare,Mumbai,Tier-1,Gynaecology,3.7,FALSE,medium,0.498,400070,18.966188,72.843091
110,Mumbai Pediatrics Hospital,Mumbai,Tier-1,Pediatrics,3.5,TRUE,medium,0.421,400002,19.105268,72.891537
111,Sahyadri Oncology Super Speciality Hospital,Mumbai,Tier-1,Oncology,4.2,TRUE,high,0.884,400002,18.909103,72.920114
112,Mumbai Nephrology Healthcare,Mumbai,Tier-1,Nephrology,3.6,FALSE,medium,0.559,400093,19.173236,72.916098
113,HCG General Medicine Clinic,Mumbai,Tier-1,General Medicine,4.2,TRUE,high,0.768,400070,19.194805,72.946924
114,Mumbai Neurology Healthcare,Mumbai,Tier-1,Neurology,3.5,FALSE,low,0.36,400070,19.157248,72.944752
115,Sterling Cardiology Institute,Mumbai,Tier-1,Cardiology,3.9,FALSE,medium,0.5,400005,19.061329,72.813434
116,Sterling Dermatology Clinic,Mumbai,Tier-1,Dermatology,3.2,TRUE,low,0.15,400001,19.040775,72.891804
117,Metro Neurology Clinic,Mumbai,Tier-1,Neurology,4.3,TRUE,high,0.979,400101,18.954053,72.877703
118,Unity Pediatrics Institute,Mumbai,Tier-1,Pediatrics,3.5,FALSE,low,0.2,400050,19.066348,72.858678
119,Mumbai Neurology Institute,Mumbai,Tier-1,Neurology,4.5,TRUE,high,0.883,400001,19.11368,72.895048
120,Mumbai Urology Clinic,Mumbai,Tier-1,Urology,3.6,TRUE,medium,0.423,400070,18.942517,72.808356
121,Sri Pulmonology Medical Center,Mumbai,Tier-1,Pulmonology,4.3,TRUE,high,0.865,400070,19.029393,72.937236
122,Care Gynaecology Medical Center,Mumbai,Tier-1,Gynaecology,3.4,TRUE,low,0.187,400093,18.998519,72.940958
123,Global Pulmonology Super Speciality Hospital,Mumbai,Tier-1,Pulmonology,3.7,FALSE,low,0.264,400101,19.167067,72.814287
124,Fortis Orthopedics Institute,Mumbai,Tier-1,Orthopedics,4.2,TRUE,high,0.812,400002,19.001507,72.836389
125,Mumbai Gynaecology Super Speciality Hospital,Mumbai,Tier-1,Gynaecology,4.2,TRUE,high,0.844,400002,19.147183,72.90918
126,Mumbai Orthopedics Healthcare,Mumbai,Tier-1,Orthopedics,4.3,FALSE,high,0.898,400050,19.03986,72.878778
127,Mumbai Neurology Healthcare,Mumbai,Tier-1,Neurology,3.8,TRUE,medium,0.686,400101,19.131407,72.864507
128,Apollo Orthopedics Institute,Mumbai,Tier-1,Orthopedics,3.6,TRUE,medium,0.621,400101,18.904142,72.880017
129,Mumbai Dermatology Hospital,Mumbai,Tier-1,Dermatology,4,FALSE,medium,0.556,400070,19.097929,72.894093
130,Global Urology Healthcare,Mumbai,Tier-1,Urology,4.2,FALSE,medium,0.628,400020,18.969821,72.899371
131,SAL Orthopedics Medical Center,Mumbai,Tier-1,Orthopedics,3.1,TRUE,low,0.023,400101,18.977375,72.828855
132,Yashoda Dermatology Institute,Mumbai,Tier-1,Dermatology,4.2,TRUE,high,0.959,400050,18.940021,72.872648
133,National Oncology Healthcare,Mumbai,Tier-1,Oncology,4,TRUE,medium,0.551,400093,19.158179,72.912132
134,Global Pediatrics Healthcare,Mumbai,Tier-1,Pediatrics,4.5,TRUE,high,0.984,400020,19.050537,72.865202
135,Mumbai Neurology Institute,Mumbai,Tier-1,Neurology,4.6,TRUE,high,0.977,400005,19.130571,72.8873
136,Care Pulmonology Healthcare,Mumbai,Tier-1,Pulmonology,3.9,FALSE,medium,0.559,400020,18.907934,72.840111
137,Mumbai Pediatrics Medical Center,Mumbai,Tier-1,Pediatrics,4.1,TRUE,high,0.718,400001,18.943235,72.865961
138,Sterling Ophthalmology Healthcare,Mumbai,Tier-1,Ophthalmology,4.4,TRUE,high,0.961,400093,19.156266,72.860192
139,Kamineni Orthopedics Super Speciality Hospital,Mumbai,Tier-1,Orthopedics,4.2,FALSE,high,0.821,400070,19.159632,72.850976
140,SAL Gynaecology Super Speciality Hospital,Mumbai,Tier-1,Gynaecology,4.5,TRUE,high,0.946,400005,19.179161,72.836407
141,Mumbai Ophthalmology Super Speciality Hospital,Mumbai,Tier-1,Ophthalmology,3.9,TRUE,medium,0.573,400002,19.040438,72.848578
142,Apollo Psychiatry Super Speciality Hospital,Mumbai,Tier-1,Psychiatry,3.9,FALSE,high,0.778,400001,19.196802,72.902109
143,Metro Gynaecology Medical Center,Mumbai,Tier-1,Gynaecology,3.2,FALSE,low,0.08,400050,19.091394,72.936269
144,Kamineni Dermatology Healthcare,Mumbai,Tier-1,Dermatology,3.5,FALSE,medium,0.497,400050,18.918184,72.89446
145,Mumbai Ophthalmology Clinic,Mumbai,Tier-1,Ophthalmology,4.2,FALSE,medium,0.633,400093,18.932588,72.849843
146,Mumbai Ophthalmology Super Speciality Hospital,Mumbai,Tier-1,Ophthalmology,3.2,FALSE,low,0.179,400001,19.048191,72.879234
147,Deenanath ENT Hospital,Mumbai,Tier-1,ENT,4.7,TRUE,high,0.987,400002,18.997162,72.837681
148,Mumbai Dermatology Institute,Mumbai,Tier-1,Dermatology,3.7,FALSE,medium,0.637,400001,19.014963,72.847221
149,Rainbow Psychiatry Super Speciality Hospital,Mumbai,Tier-1,Psychiatry,3.8,FALSE,medium,0.401,400001,19.067657,72.922597
150,Sahyadri Cardiology Super Speciality Hospital,Mumbai,Tier-1,Cardiology,3.7,TRUE,medium,0.595,400093,18.91147,72.80434
151,Delhi Oncology Clinic,Delhi,Tier-1,Oncology,3.6,FALSE,low,0.31,110092,28.765744,76.89966
152,Poona General Medicine Clinic,Delhi,Tier-1,General Medicine,3.5,FALSE,low,0.312,110025,28.431591,76.909548
153,Delhi General Medicine Healthcare,Delhi,Tier-1,General Medicine,3.9,FALSE,medium,0.417,110025,28.556086,76.999679
154,HCG Urology Healthcare,Delhi,Tier-1,Urology,4.1,FALSE,high,0.734,110002,28.679481,77.168901
155,Delhi Psychiatry Institute,Delhi,Tier-1,Psychiatry,3.6,FALSE,medium,0.427,110092,28.539634,77.29473
156,Apollo Orthopedics Hospital,Delhi,Tier-1,Orthopedics,4.5,FALSE,high,0.945,110092,28.859351,76.924938
157,City Pediatrics Clinic,Delhi,Tier-1,Pediatrics,3.9,FALSE,medium,0.471,110005,28.482971,77.050063
158,Kamineni Dermatology Healthcare,Delhi,Tier-1,Dermatology,3.6,TRUE,medium,0.464,110016,28.606095,77.037589
159,Delhi Cardiology Medical Center,Delhi,Tier-1,Cardiology,4.2,TRUE,high,0.707,110001,28.877226,77.113625
160,Delhi Gynaecology Clinic,Delhi,Tier-1,Gynaecology,4.5,TRUE,high,0.838,110002,28.826273,77.070703
161,Kamineni Pulmonology Institute,Delhi,Tier-1,Pulmonology,4.6,TRUE,high,0.976,110005,28.82711,77.09229
162,Sri Pediatrics Hospital,Delhi,Tier-1,Pediatrics,3.5,TRUE,low,0.298,110049,28.855388,77.250689
163,Global ENT Healthcare,Delhi,Tier-1,ENT,3.1,TRUE,low,0.209,110025,28.686539,76.885101
164,Continental Orthopedics Healthcare,Delhi,Tier-1,Orthopedics,4,TRUE,high,0.794,110060,28.469757,76.884361
165,Poona Gastroenterology Hospital,Delhi,Tier-1,Gastroenterology,4.1,TRUE,high,0.828,110060,28.81255,77.289204
166,Delhi Nephrology Clinic,Delhi,Tier-1,Nephrology,3.7,TRUE,medium,0.525,110005,28.718411,76.893933
167,Care ENT Healthcare,Delhi,Tier-1,ENT,3.7,TRUE,medium,0.58,110025,28.476969,76.903516
168,Apollo Pediatrics Medical Center,Delhi,Tier-1,Pediatrics,4.2,TRUE,high,0.81,110025,28.876744,76.98221
169,City Urology Hospital,Delhi,Tier-1,Urology,4.3,TRUE,high,0.79,110049,28.732729,76.967681
170,Delhi Urology Healthcare,Delhi,Tier-1,Urology,4.1,FALSE,high,0.86,110025,28.504915,76.822649
171,Metro Gynaecology Medical Center,Delhi,Tier-1,Gynaecology,4.3,TRUE,high,0.738,110049,28.502664,77.048493
172,Metro Ophthalmology Institute,Delhi,Tier-1,Ophthalmology,4.5,TRUE,high,0.99,110060,28.657565,77.285302
173,Ruby Oncology Institute,Delhi,Tier-1,Oncology,3.4,TRUE,low,0.23,110016,28.808928,77.048528
174,Fortis Oncology Institute,Delhi,Tier-1,Oncology,3.9,TRUE,medium,0.669,110001,28.729316,77.295549
175,Delhi Ophthalmology Super Speciality Hospital,Delhi,Tier-1,Ophthalmology,4.4,TRUE,high,0.83,110049,28.600876,77.291135
176,Delhi Dermatology Super Speciality Hospital,Delhi,Tier-1,Dermatology,3,FALSE,low,0.152,110002,28.672038,77.248559
177,Apollo Gastroenterology Medical Center,Delhi,Tier-1,Gastroenterology,4.2,TRUE,high,0.919,110001,28.487259,76.89295
178,City Pediatrics Institute,Delhi,Tier-1,Pediatrics,4,TRUE,medium,0.568,110005,28.538691,76.924975
179,Apollo Ophthalmology Hospital,Delhi,Tier-1,Ophthalmology,3.6,TRUE,medium,0.43,110049,28.608164,76.863402
180,Poona Gastroenterology Healthcare,Delhi,Tier-1,Gastroenterology,4.2,TRUE,high,0.904,110005,28.845041,77.169828
181,Yashoda Nephrology Medical Center,Delhi,Tier-1,Nephrology,3.6,FALSE,medium,0.505,110016,28.546878,76.83716
182,Poona Cardiology Super Speciality Hospital,Delhi,Tier-1,Cardiology,4,TRUE,high,0.739,110005,28.747436,77.11138
183,HCG Cardiology Healthcare,Delhi,Tier-1,Cardiology,4.4,TRUE,high,0.774,110092,28.614222,77.204643
184,Delhi ENT Medical Center,Delhi,Tier-1,ENT,4.1,TRUE,medium,0.508,110001,28.478526,76.922389
185,KIMS Dermatology Hospital,Delhi,Tier-1,Dermatology,4.2,TRUE,high,0.704,110005,28.568316,77.109323
186,Continental Gynaecology Medical Center,Delhi,Tier-1,Gynaecology,3.2,FALSE,low,0.227,110016,28.870567,77.119571
187,SAL Cardiology Institute,Delhi,Tier-1,Cardiology,4.2,TRUE,high,0.823,110049,28.432338,77.037672
188,Yashoda Gastroenterology Super Speciality Hospital,Delhi,Tier-1,Gastroenterology,4.5,TRUE,high,0.925,110002,28.435719,77.085947
189,Delhi Nephrology Medical Center,Delhi,Tier-1,Nephrology,3.6,TRUE,medium,0.511,110001,28.765245,76.851242
190,Care Psychiatry Institute,Delhi,Tier-1,Psychiatry,4.3,TRUE,high,0.811,110016,28.439927,77.125225
191,Deenanath Ophthalmology Hospital,Delhi,Tier-1,Ophthalmology,3.4,FALSE,medium,0.425,110049,28.651012,76.84625
192,Care Psychiatry Clinic,Delhi,Tier-1,Psychiatry,3.8,FALSE,medium,0.613,110049,28.568688,76.840852
193,Delhi Nephrology Clinic,Delhi,Tier-1,Nephrology,3.1,FALSE,low,0.06,110060,28.748832,77.050823
194,Global Gynaecology Super Speciality Hospital,Delhi,Tier-1,Gynaecology,3.2,FALSE,low,0.116,110049,28.536169,77.195247
195,Poona Ophthalmology Hospital,Delhi,Tier-1,Ophthalmology,3,FALSE,low,0.043,110005,28.865586,77.230329
196,Delhi Gynaecology Institute,Delhi,Tier-1,Gynaecology,4,TRUE,medium,0.659,110005,28.463248,76.901071
197,Unity Oncology Clinic,Delhi,Tier-1,Oncology,4.3,TRUE,high,0.766,110016,28.607917,76.850093
198,City Gastroenterology Super Speciality Hospital,Delhi,Tier-1,Gastroenterology,4,FALSE,medium,0.614,110049,28.61991,77.198456
199,Ruby Psychiatry Super Speciality Hospital,Delhi,Tier-1,Psychiatry,4.3,TRUE,high,0.88,110016,28.623699,77.220801
200,Delhi Nephrology Institute,Delhi,Tier-1,Nephrology,4.2,TRUE,high,0.828,110002,28.870547,76.876154
201,City Gastroenterology Super Speciality Hospital,Delhi,Tier-1,Gastroenterology,4.2,TRUE,medium,0.625,110002,28.682829,76.829257
202,Yashoda Dermatology Hospital,Delhi,Tier-1,Dermatology,4,FALSE,medium,0.614,110025,28.716074,76.93653
203,Sahyadri Gastroenterology Hospital,Delhi,Tier-1,Gastroenterology,4.4,TRUE,high,0.811,110060,28.737272,76.806476
204,Delhi General Medicine Institute,Delhi,Tier-1,General Medicine,3.2,FALSE,low,0.16,110001,28.814739,77.178103
205,Kamineni Cardiology Hospital,Delhi,Tier-1,Cardiology,4,FALSE,medium,0.573,110005,28.566986,76.965065
206,Global Pediatrics Medical Center,Delhi,Tier-1,Pediatrics,3.6,TRUE,low,0.285,110025,28.521955,77.296268
207,Yashoda Cardiology Super Speciality Hospital,Delhi,Tier-1,Cardiology,3.3,FALSE,low,0.299,110016,28.43544,77.092012
208,Continental Gynaecology Clinic,Delhi,Tier-1,Gynaecology,3,TRUE,low,0.016,110025,28.848694,76.968783
209,Deenanath Pediatrics Medical Center,Delhi,Tier-1,Pediatrics,4.1,FALSE,medium,0.651,110016,28.855185,76.931842
210,KIMS Psychiatry Hospital,Delhi,Tier-1,Psychiatry,4.1,TRUE,high,0.835,110002,28.410978,77.173397
211,Delhi Gastroenterology Institute,Delhi,Tier-1,Gastroenterology,4.2,TRUE,high,0.718,110002,28.749951,76.805825
212,Continental Oncology Healthcare,Delhi,Tier-1,Oncology,4.3,TRUE,high,0.867,110025,28.447846,76.939476
213,Care ENT Healthcare,Delhi,Tier-1,ENT,3.3,TRUE,low,0.038,110016,28.843971,77.074902
214,Sterling Gastroenterology Super Speciality Hospital,Delhi,Tier-1,Gastroenterology,3.5,FALSE,low,0.363,110025,28.599528,76.971916
215,Metro ENT Hospital,Delhi,Tier-1,ENT,4,FALSE,high,0.796,110001,28.495355,76.976217
216,Global Ophthalmology Healthcare,Delhi,Tier-1,Ophthalmology,4.1,FALSE,medium,0.656,110025,28.735212,77.113235
217,Delhi Gynaecology Medical Center,Delhi,Tier-1,Gynaecology,4.5,TRUE,high,0.857,110001,28.535316,76.83115
218,Delhi Pulmonology Institute,Delhi,Tier-1,Pulmonology,3.7,FALSE,medium,0.631,110060,28.739013,77.197737
219,Delhi ENT Healthcare,Delhi,Tier-1,ENT,3.6,FALSE,low,0.347,110002,28.813674,76.940699
220,Delhi Orthopedics Healthcare,Delhi,Tier-1,Orthopedics,4.2,TRUE,high,0.832,110002,28.676634,76.927175
221,Fortis Ophthalmology Medical Center,Delhi,Tier-1,Ophthalmology,4,TRUE,medium,0.524,110001,28.505491,77.151367
222,Ruby Orthopedics Clinic,Delhi,Tier-1,Orthopedics,3.5,FALSE,low,0.176,110092,28.530521,77.056421
223,National Neurology Institute,Delhi,Tier-1,Neurology,3.1,TRUE,low,0.243,110001,28.54196,76.931595
224,Delhi Gastroenterology Institute,Delhi,Tier-1,Gastroenterology,3.1,FALSE,low,0.014,110001,28.687291,76.810539
225,SAL Pediatrics Healthcare,Delhi,Tier-1,Pediatrics,3.8,TRUE,medium,0.536,110002,28.498972,77.119106
226,Yashoda Neurology Hospital,Delhi,Tier-1,Neurology,4.3,FALSE,medium,0.689,110060,28.589902,77.068065
227,Rainbow Oncology Institute,Delhi,Tier-1,Oncology,3.2,FALSE,low,0.255,110005,28.758481,77.289657
228,Unity Pediatrics Super Speciality Hospital,Delhi,Tier-1,Pediatrics,3.1,FALSE,low,0.101,110005,28.789073,77.143579
229,Kamineni General Medicine Medical Center,Delhi,Tier-1,General Medicine,3.5,FALSE,low,0.318,110016,28.722883,76.954404
230,Delhi Neurology Medical Center,Delhi,Tier-1,Neurology,3.4,FALSE,medium,0.423,110025,28.671859,77.062852
231,City Orthopedics Super Speciality Hospital,Delhi,Tier-1,Orthopedics,3.9,TRUE,high,0.758,110016,28.576664,77.263318
232,Continental Gynaecology Medical Center,Delhi,Tier-1,Gynaecology,4,FALSE,medium,0.533,110016,28.724899,76.802297
233,Prime Psychiatry Clinic,Delhi,Tier-1,Psychiatry,4.6,TRUE,high,0.858,110016,28.529812,77.282776
234,Prime General Medicine Hospital,Delhi,Tier-1,General Medicine,4.4,TRUE,high,0.962,110001,28.702471,77.284533
235,Metro Neurology Medical Center,Delhi,Tier-1,Neurology,3.2,FALSE,low,0.249,110025,28.631179,76.818194
236,Delhi ENT Clinic,Delhi,Tier-1,ENT,4.5,TRUE,high,0.817,110049,28.653851,77.041949
237,Delhi Urology Hospital,Delhi,Tier-1,Urology,4.3,TRUE,high,0.71,110005,28.72625,77.041106
238,Ruby Pediatrics Super Speciality Hospital,Delhi,Tier-1,Pediatrics,3.7,FALSE,medium,0.603,110016,28.567942,77.045384
239,Sri Gynaecology Institute,Delhi,Tier-1,Gynaecology,4.4,TRUE,high,0.84,110016,28.422736,77.216968
240,Fortis Orthopedics Super Speciality Hospital,Delhi,Tier-1,Orthopedics,3.7,FALSE,medium,0.635,110002,28.504648,77.216279
241,SAL Gynaecology Healthcare,Delhi,Tier-1,Gynaecology,3.6,TRUE,medium,0.483,110092,28.753588,76.826885
242,Prime Dermatology Medical Center,Delhi,Tier-1,Dermatology,4,TRUE,high,0.756,110016,28.526576,77.068452
243,Delhi Urology Healthcare,Delhi,Tier-1,Urology,3.6,FALSE,low,0.26,110092,28.432092,77.289194
244,Delhi Cardiology Hospital,Delhi,Tier-1,Cardiology,4.6,TRUE,high,0.983,110001,28.86928,77.252278
245,Delhi General Medicine Super Speciality Hospital,Delhi,Tier-1,General Medicine,4.5,TRUE,high,0.896,110001,28.476783,76.856778
246,Kamineni ENT Super Speciality Hospital,Delhi,Tier-1,ENT,4.4,TRUE,high,0.889,110049,28.584228,76.80005
247,City Nephrology Institute,Delhi,Tier-1,Nephrology,3.4,FALSE,low,0.181,110002,28.458262,76.850706
248,Delhi Gynaecology Super Speciality Hospital,Delhi,Tier-1,Gynaecology,4.3,TRUE,high,0.974,110060,28.480663,77.222214
249,HCG Pediatrics Medical Center,Delhi,Tier-1,Pediatrics,3.3,TRUE,low,0.313,110025,28.505393,76.801222
250,Prime General Medicine Clinic,Delhi,Tier-1,General Medicine,4.5,TRUE,high,0.846,110060,28.463547,76.986167
251,Delhi Orthopedics Super Speciality Hospital,Delhi,Tier-1,Orthopedics,3.7,FALSE,medium,0.568,110049,28.833259,76.933476
252,Delhi Cardiology Super Speciality Hospital,Delhi,Tier-1,Cardiology,4.5,TRUE,high,0.972,110005,28.605542,77.133514
253,Delhi Orthopedics Hospital,Delhi,Tier-1,Orthopedics,4.5,TRUE,high,0.825,110016,28.618424,77.028559
254,Sterling Cardiology Institute,Delhi,Tier-1,Cardiology,3,FALSE,low,0.081,110049,28.858132,77.196015
255,Rainbow Oncology Medical Center,Delhi,Tier-1,Oncology,3.5,FALSE,medium,0.472,110025,28.438218,77.046099
256,Ruby Gastroenterology Clinic,Delhi,Tier-1,Gastroenterology,4.2,TRUE,high,0.988,110002,28.642045,77.210854
257,Rainbow Ophthalmology Clinic,Delhi,Tier-1,Ophthalmology,3.2,FALSE,low,0.323,110002,28.579878,77.078628
258,Global Gynaecology Medical Center,Delhi,Tier-1,Gynaecology,3.2,FALSE,low,0.224,110060,28.555524,76.990185
259,Ruby Pediatrics Institute,Delhi,Tier-1,Pediatrics,4.6,TRUE,high,0.913,110016,28.406603,77.111137
260,Metro Ophthalmology Super Speciality Hospital,Delhi,Tier-1,Ophthalmology,3,FALSE,low,0.158,110092,28.486169,77.212105
261,Delhi Gynaecology Healthcare,Delhi,Tier-1,Gynaecology,4.4,TRUE,high,0.896,110060,28.675398,77.097451
262,Rainbow Cardiology Clinic,Delhi,Tier-1,Cardiology,4.1,TRUE,high,0.796,110025,28.476305,77.269212
263,Global Pediatrics Super Speciality Hospital,Delhi,Tier-1,Pediatrics,3.9,TRUE,medium,0.452,110002,28.874491,77.224052
264,Poona Ophthalmology Hospital,Delhi,Tier-1,Ophthalmology,3.6,TRUE,medium,0.437,110025,28.651558,77.291471
265,Apollo Gynaecology Medical Center,Delhi,Tier-1,Gynaecology,3.3,FALSE,low,0.131,110049,28.66417,76.840815
266,Delhi Neurology Clinic,Delhi,Tier-1,Neurology,3.5,TRUE,medium,0.498,110016,28.405858,76.872351
267,Care ENT Healthcare,Delhi,Tier-1,ENT,4.4,TRUE,high,0.824,110025,28.72449,76.987385
268,Ruby General Medicine Medical Center,Delhi,Tier-1,General Medicine,4.4,FALSE,high,0.759,110005,28.606845,77.291801
269,Continental Oncology Super Speciality Hospital,Delhi,Tier-1,Oncology,4.4,TRUE,high,0.926,110025,28.476908,77.265607
270,Yashoda Oncology Healthcare,Delhi,Tier-1,Oncology,3.6,TRUE,medium,0.484,110060,28.598694,77.253814
271,Metro Cardiology Institute,Delhi,Tier-1,Cardiology,4.2,TRUE,high,0.943,110049,28.516722,77.199621
272,Delhi Pediatrics Institute,Delhi,Tier-1,Pediatrics,4.1,TRUE,high,0.926,110016,28.482305,77.258427
273,National General Medicine Medical Center,Delhi,Tier-1,General Medicine,3,FALSE,low,0.172,110001,28.613417,76.96234
274,Metro Psychiatry Super Speciality Hospital,Delhi,Tier-1,Psychiatry,4.1,FALSE,high,0.744,110016,28.581455,77.035986
275,Apollo ENT Medical Center,Delhi,Tier-1,ENT,4.4,TRUE,high,0.805,110049,28.512609,77.07779
276,Fortis Urology Clinic,Delhi,Tier-1,Urology,4.1,TRUE,medium,0.677,110060,28.650367,76.950141
277,Delhi Urology Hospital,Delhi,Tier-1,Urology,3.8,TRUE,medium,0.405,110001,28.765712,76.821648
278,Apollo Oncology Super Speciality Hospital,Delhi,Tier-1,Oncology,4.3,TRUE,high,0.761,110002,28.415299,77.075425
279,Delhi General Medicine Healthcare,Delhi,Tier-1,General Medicine,4.2,TRUE,high,0.812,110016,28.783537,77.111734
280,Delhi Ophthalmology Super Speciality Hospital,Delhi,Tier-1,Ophthalmology,4.4,TRUE,high,0.872,110002,28.609514,76.899501
281,Delhi General Medicine Healthcare,Delhi,Tier-1,General Medicine,3.9,TRUE,high,0.7,110025,28.54477,77.273441
282,Delhi General Medicine Super Speciality Hospital,Delhi,Tier-1,General Medicine,4.2,TRUE,high,0.998,110092,28.757792,76.898472
283,Delhi Gastroenterology Healthcare,Delhi,Tier-1,Gastroenterology,3.5,TRUE,medium,0.551,110025,28.467392,76.879513
284,Delhi Cardiology Super Speciality Hospital,Delhi,Tier-1,Cardiology,4.2,TRUE,high,0.851,110016,28.428097,76.885884
285,Continental Gynaecology Institute,Delhi,Tier-1,Gynaecology,3,TRUE,low,0.088,110016,28.778274,77.048487
286,Global General Medicine Medical Center,Delhi,Tier-1,General Medicine,3,FALSE,low,0.089,110060,28.754679,76.856757
287,Kamineni Nephrology Medical Center,Delhi,Tier-1,Nephrology,4.4,TRUE,high,0.945,110025,28.50422,76.808028
288,Delhi ENT Healthcare,Delhi,Tier-1,ENT,4,TRUE,high,0.843,110092,28.526403,76.810436
289,Delhi Cardiology Institute,Delhi,Tier-1,Cardiology,3.8,FALSE,medium,0.679,110001,28.645418,76.898294
290,Care ENT Institute,Delhi,Tier-1,ENT,3.7,FALSE,low,0.341,110005,28.75404,76.896636
291,Metro General Medicine Super Speciality Hospital,Delhi,Tier-1,General Medicine,4.4,TRUE,high,0.924,110092,28.50846,76.995372
292,Yashoda ENT Medical Center,Delhi,Tier-1,ENT,3.6,TRUE,medium,0.542,110049,28.778422,77.180073
293,Delhi Ophthalmology Medical Center,Delhi,Tier-1,Ophthalmology,4.4,TRUE,high,0.88,110005,28.72139,77.179484
294,Metro Pediatrics Institute,Delhi,Tier-1,Pediatrics,3.9,TRUE,high,0.82,110005,28.568214,77.230614
295,Yashoda Ophthalmology Medical Center,Delhi,Tier-1,Ophthalmology,4.2,TRUE,high,0.948,110060,28.871665,77.181467
296,Sahyadri Neurology Institute,Delhi,Tier-1,Neurology,4.1,FALSE,medium,0.557,110049,28.743063,77.230275
297,Global Orthopedics Super Speciality Hospital,Delhi,Tier-1,Orthopedics,3,FALSE,low,0.107,110060,28.861134,77.140074
298,Continental Gastroenterology Medical Center,Delhi,Tier-1,Gastroenterology,3.3,FALSE,low,0.268,110025,28.497084,76.906867
299,Sahyadri Pediatrics Institute,Delhi,Tier-1,Pediatrics,3.6,FALSE,medium,0.41,110092,28.638147,77.298018
300,Global Gynaecology Super Speciality Hospital,Delhi,Tier-1,Gynaecology,4,TRUE,high,0.714,110025,28.502108,77.08261
301,Bangalore Orthopedics Clinic,Bangalore,Tier-1,Orthopedics,4.4,TRUE,high,0.954,560102,12.855983,77.53233
302,Sri ENT Super Speciality Hospital,Bangalore,Tier-1,ENT,3.8,TRUE,medium,0.676,560102,13.022169,77.543669
303,Yashoda Cardiology Medical Center,Bangalore,Tier-1,Cardiology,3.7,FALSE,medium,0.636,560002,12.994434,77.682672
304,Care General Medicine Super Speciality Hospital,Bangalore,Tier-1,General Medicine,4.2,FALSE,medium,0.594,560086,12.926693,77.653829
305,Ruby Gastroenterology Hospital,Bangalore,Tier-1,Gastroenterology,4.3,FALSE,high,0.905,560102,13.086362,77.5645
306,Apollo Pediatrics Hospital,Bangalore,Tier-1,Pediatrics,4.3,TRUE,high,0.99,560086,12.997181,77.616711
307,Care ENT Clinic,Bangalore,Tier-1,ENT,3.3,FALSE,low,0.057,560002,12.963864,77.568007
308,City Psychiatry Super Speciality Hospital,Bangalore,Tier-1,Psychiatry,3.2,FALSE,low,0.168,560004,12.877637,77.53039
309,Care Pediatrics Healthcare,Bangalore,Tier-1,Pediatrics,3.8,FALSE,medium,0.506,560001,13.087438,77.666709
310,Deenanath Pulmonology Super Speciality Hospital,Bangalore,Tier-1,Pulmonology,4.3,TRUE,high,0.806,560034,13.096659,77.567386
311,Bangalore Nephrology Institute,Bangalore,Tier-1,Nephrology,3.7,FALSE,low,0.284,560025,13.078797,77.632878
312,Metro ENT Super Speciality Hospital,Bangalore,Tier-1,ENT,4.5,TRUE,high,0.843,560102,13.026643,77.618885
313,Care Neurology Hospital,Bangalore,Tier-1,Neurology,4,TRUE,high,0.767,560034,13.048632,77.545988
314,Unity Ophthalmology Hospital,Bangalore,Tier-1,Ophthalmology,4.2,TRUE,high,0.762,560025,12.868564,77.573792
315,Fortis ENT Hospital,Bangalore,Tier-1,ENT,3.9,TRUE,high,0.718,560102,13.091407,77.659785
316,Fortis Nephrology Medical Center,Bangalore,Tier-1,Nephrology,4,TRUE,high,0.79,560004,12.904961,77.559286
317,City Nephrology Hospital,Bangalore,Tier-1,Nephrology,4.3,TRUE,high,0.959,560002,12.857254,77.511812
318,Bangalore Urology Clinic,Bangalore,Tier-1,Urology,4,FALSE,high,0.803,560076,12.913458,77.559226
319,Care Urology Institute,Bangalore,Tier-1,Urology,3.9,TRUE,medium,0.676,560034,12.992409,77.571291
320,KIMS Orthopedics Super Speciality Hospital,Bangalore,Tier-1,Orthopedics,4.4,TRUE,high,0.882,560076,12.871311,77.506343
321,Sterling Neurology Hospital,Bangalore,Tier-1,Neurology,3.6,FALSE,medium,0.595,560004,13.095142,77.668058
322,Bangalore Psychiatry Medical Center,Bangalore,Tier-1,Psychiatry,4.1,TRUE,high,0.874,560004,12.896328,77.669408
323,Deenanath General Medicine Medical Center,Bangalore,Tier-1,General Medicine,3.1,FALSE,low,0.237,560076,12.887089,77.638189
324,Prime Gynaecology Super Speciality Hospital,Bangalore,Tier-1,Gynaecology,4.4,TRUE,high,0.787,560102,12.860234,77.539817
325,Rainbow ENT Clinic,Bangalore,Tier-1,ENT,4.3,TRUE,high,0.954,560076,12.997541,77.677662
326,SAL Oncology Super Speciality Hospital,Bangalore,Tier-1,Oncology,3.4,TRUE,low,0.258,560076,12.85618,77.50934
327,Bangalore Pulmonology Institute,Bangalore,Tier-1,Pulmonology,4.3,TRUE,high,0.948,560004,12.98141,77.624146
328,Bangalore Pediatrics Super Speciality Hospital,Bangalore,Tier-1,Pediatrics,3.6,FALSE,medium,0.573,560025,12.973333,77.656186
329,Yashoda General Medicine Medical Center,Bangalore,Tier-1,General Medicine,3.4,FALSE,low,0.225,560102,13.019314,77.644917
330,Fortis Gynaecology Super Speciality Hospital,Bangalore,Tier-1,Gynaecology,3.9,TRUE,medium,0.448,560034,12.987697,77.528276
331,Care Neurology Healthcare,Bangalore,Tier-1,Neurology,4.4,TRUE,high,0.96,560086,13.070471,77.572371
332,Global Oncology Hospital,Bangalore,Tier-1,Oncology,3.6,TRUE,medium,0.401,560086,12.902918,77.69798
333,Bangalore Cardiology Clinic,Bangalore,Tier-1,Cardiology,3.6,FALSE,low,0.289,560025,13.039484,77.578246
334,Bangalore Urology Healthcare,Bangalore,Tier-1,Urology,4,TRUE,high,0.773,560086,12.867157,77.643897
335,Ruby Gastroenterology Institute,Bangalore,Tier-1,Gastroenterology,3.9,TRUE,medium,0.466,560102,13.053726,77.546959
336,Poona Gynaecology Institute,Bangalore,Tier-1,Gynaecology,3.7,FALSE,medium,0.537,560004,13.019743,77.656518
337,HCG Ophthalmology Institute,Bangalore,Tier-1,Ophthalmology,3.9,FALSE,medium,0.428,560025,12.94171,77.639372
338,Sahyadri Pediatrics Healthcare,Bangalore,Tier-1,Pediatrics,3.4,FALSE,medium,0.437,560034,13.024874,77.580662
339,Sterling General Medicine Institute,Bangalore,Tier-1,General Medicine,4.4,TRUE,high,0.882,560002,12.946959,77.574205
340,Unity Gastroenterology Hospital,Bangalore,Tier-1,Gastroenterology,4.2,TRUE,high,0.82,560002,12.976762,77.612472
341,Bangalore Nephrology Medical Center,Bangalore,Tier-1,Nephrology,3.9,TRUE,medium,0.485,560102,12.851427,77.564961
342,HCG Gastroenterology Clinic,Bangalore,Tier-1,Gastroenterology,4.2,TRUE,high,0.952,560034,13.04327,77.557761
343,Global Orthopedics Super Speciality Hospital,Bangalore,Tier-1,Orthopedics,4.4,TRUE,high,0.788,560076,13.001292,77.682723
344,Bangalore Pulmonology Clinic,Bangalore,Tier-1,Pulmonology,4,TRUE,medium,0.568,560076,13.063509,77.646947
345,Yashoda Pediatrics Hospital,Bangalore,Tier-1,Pediatrics,4.4,TRUE,high,0.846,560102,13.032575,77.589851
346,Bangalore Ophthalmology Healthcare,Bangalore,Tier-1,Ophthalmology,4.3,TRUE,high,0.767,560002,13.089203,77.528849
347,Ruby General Medicine Hospital,Bangalore,Tier-1,General Medicine,3.6,FALSE,low,0.239,560025,12.92467,77.563346
348,Bangalore ENT Healthcare,Bangalore,Tier-1,ENT,3.7,FALSE,medium,0.624,560076,12.896123,77.527813
349,Metro General Medicine Medical Center,Bangalore,Tier-1,General Medicine,4.2,TRUE,high,0.947,560002,12.911774,77.518773
350,KIMS Gynaecology Hospital,Bangalore,Tier-1,Gynaecology,3.2,FALSE,low,0.215,560102,12.938654,77.58699
351,Bangalore Nephrology Hospital,Bangalore,Tier-1,Nephrology,3.8,FALSE,medium,0.572,560002,12.888391,77.603336
352,Care Cardiology Medical Center,Bangalore,Tier-1,Cardiology,4,TRUE,high,0.775,560004,12.949723,77.579567
353,Bangalore Nephrology Super Speciality Hospital,Bangalore,Tier-1,Nephrology,3.8,FALSE,medium,0.428,560034,13.044068,77.518873
354,Sri Pediatrics Hospital,Bangalore,Tier-1,Pediatrics,4.2,TRUE,high,0.754,560004,13.049334,77.690338
355,Care Ophthalmology Clinic,Bangalore,Tier-1,Ophthalmology,3.5,FALSE,low,0.172,560034,13.032608,77.538469
356,Continental Cardiology Hospital,Bangalore,Tier-1,Cardiology,4,FALSE,medium,0.633,560002,12.85432,77.645058
357,Care General Medicine Medical Center,Bangalore,Tier-1,General Medicine,3.5,FALSE,low,0.193,560002,13.081173,77.553194
358,HCG Urology Clinic,Bangalore,Tier-1,Urology,4.2,TRUE,high,0.852,560086,13.019503,77.642991
359,Ruby Neurology Super Speciality Hospital,Bangalore,Tier-1,Neurology,4.1,TRUE,medium,0.594,560102,13.05891,77.652451
360,Deenanath General Medicine Hospital,Bangalore,Tier-1,General Medicine,4,TRUE,medium,0.499,560004,13.095003,77.635461
361,HCG Pediatrics Medical Center,Bangalore,Tier-1,Pediatrics,4.3,TRUE,high,0.859,560002,12.990151,77.607653
362,Bangalore Urology Healthcare,Bangalore,Tier-1,Urology,4.2,TRUE,high,0.718,560025,13.014248,77.578754
363,City General Medicine Super Speciality Hospital,Bangalore,Tier-1,General Medicine,3.8,FALSE,medium,0.412,560102,12.934853,77.568596
364,Bangalore Orthopedics Healthcare,Bangalore,Tier-1,Orthopedics,4.1,FALSE,medium,0.529,560002,12.909402,77.573295
365,Care Neurology Institute,Bangalore,Tier-1,Neurology,3.9,TRUE,medium,0.647,560004,12.952772,77.598837
366,Sahyadri Dermatology Institute,Bangalore,Tier-1,Dermatology,3.1,FALSE,low,0.152,560001,12.957826,77.582655
367,Sri Orthopedics Clinic,Bangalore,Tier-1,Orthopedics,3.2,FALSE,low,0.16,560102,12.984744,77.622808
368,Sri Cardiology Clinic,Bangalore,Tier-1,Cardiology,3.8,TRUE,medium,0.513,560076,13.081615,77.632624
369,Global General Medicine Institute,Bangalore,Tier-1,General Medicine,4.3,TRUE,high,0.938,560004,13.08804,77.6263
370,Deenanath Urology Medical Center,Bangalore,Tier-1,Urology,3.8,FALSE,medium,0.639,560076,12.871524,77.52264
371,HCG Oncology Clinic,Bangalore,Tier-1,Oncology,3.4,TRUE,low,0.082,560001,13.074268,77.589823
372,Deenanath Orthopedics Hospital,Bangalore,Tier-1,Orthopedics,3.9,TRUE,high,0.747,560086,12.909305,77.575299
373,Unity Nephrology Healthcare,Bangalore,Tier-1,Nephrology,4.1,FALSE,high,0.804,560076,12.932448,77.529556
374,Prime Neurology Super Speciality Hospital,Bangalore,Tier-1,Neurology,3.2,FALSE,low,0.098,560102,12.994641,77.612371
375,Global Cardiology Clinic,Bangalore,Tier-1,Cardiology,4.2,TRUE,high,0.955,560076,13.041703,77.563254
376,Bangalore Psychiatry Medical Center,Bangalore,Tier-1,Psychiatry,4.2,TRUE,high,0.797,560002,13.075682,77.668738
377,Fortis Orthopedics Hospital,Bangalore,Tier-1,Orthopedics,4.5,TRUE,high,0.94,560034,12.904267,77.675745
378,Poona Gastroenterology Super Speciality Hospital,Bangalore,Tier-1,Gastroenterology,3.6,FALSE,low,0.252,560004,12.895172,77.641194
379,Bangalore Neurology Hospital,Bangalore,Tier-1,Neurology,3.2,FALSE,low,0.003,560086,12.908701,77.677874
380,Rainbow Pediatrics Medical Center,Bangalore,Tier-1,Pediatrics,4.3,FALSE,high,0.747,560086,13.040568,77.520783
381,Bangalore General Medicine Healthcare,Bangalore,Tier-1,General Medicine,4.3,TRUE,high,0.794,560034,13.089368,77.608506
382,HCG Orthopedics Clinic,Bangalore,Tier-1,Orthopedics,3.6,FALSE,medium,0.55,560086,13.077586,77.600938
383,Bangalore Orthopedics Hospital,Bangalore,Tier-1,Orthopedics,4,FALSE,high,0.737,560076,12.875679,77.669824
384,Kamineni Pediatrics Super Speciality Hospital,Bangalore,Tier-1,Pediatrics,3.8,FALSE,medium,0.516,560002,12.952401,77.590531
385,Prime Psychiatry Clinic,Bangalore,Tier-1,Psychiatry,4.5,TRUE,high,0.795,560102,12.906006,77.641766
386,Bangalore Cardiology Medical Center,Bangalore,Tier-1,Cardiology,4.4,TRUE,high,0.939,560004,13.084043,77.530557
387,Poona Neurology Super Speciality Hospital,Bangalore,Tier-1,Neurology,4.1,TRUE,high,0.733,560004,13.00787,77.592973
388,Bangalore General Medicine Hospital,Bangalore,Tier-1,General Medicine,4.4,TRUE,high,0.739,560004,12.981756,77.672319
389,Bangalore Cardiology Clinic,Bangalore,Tier-1,Cardiology,4.3,TRUE,high,0.752,560001,12.866442,77.628518
390,Care Neurology Clinic,Bangalore,Tier-1,Neurology,4.4,FALSE,high,0.888,560076,12.978919,77.573521
391,Sterling Ophthalmology Medical Center,Bangalore,Tier-1,Ophthalmology,4.2,TRUE,high,0.962,560001,12.947594,77.624017
392,Care Cardiology Hospital,Bangalore,Tier-1,Cardiology,3.8,FALSE,low,0.354,560076,12.910982,77.615709
393,City Pulmonology Institute,Bangalore,Tier-1,Pulmonology,3,TRUE,low,0.102,560002,13.087569,77.602161
394,Bangalore Psychiatry Super Speciality Hospital,Bangalore,Tier-1,Psychiatry,3.2,FALSE,low,0.044,560025,13.086882,77.679591
395,Bangalore ENT Healthcare,Bangalore,Tier-1,ENT,3.9,FALSE,medium,0.588,560002,13.025743,77.528921
396,Fortis Pulmonology Clinic,Bangalore,Tier-1,Pulmonology,4,TRUE,medium,0.605,560076,13.073084,77.510581
397,Bangalore Ophthalmology Super Speciality Hospital,Bangalore,Tier-1,Ophthalmology,4.1,TRUE,medium,0.658,560086,13.089386,77.517827
398,SAL Nephrology Super Speciality Hospital,Bangalore,Tier-1,Nephrology,3.9,TRUE,medium,0.681,560004,13.027909,77.658814
399,National Cardiology Clinic,Bangalore,Tier-1,Cardiology,4.4,TRUE,high,0.998,560034,12.892361,77.694507
400,Bangalore ENT Clinic,Bangalore,Tier-1,ENT,3.8,FALSE,medium,0.677,560004,13.04122,77.561098
401,Sterling Cardiology Institute,Bangalore,Tier-1,Cardiology,4.3,TRUE,high,0.87,560002,12.871209,77.571878
402,Bangalore Oncology Healthcare,Bangalore,Tier-1,Oncology,3.1,FALSE,low,0.097,560002,13.057241,77.648215
403,Sterling Oncology Hospital,Bangalore,Tier-1,Oncology,3.8,TRUE,high,0.709,560004,12.982491,77.572708
404,Bangalore Neurology Hospital,Bangalore,Tier-1,Neurology,3.9,TRUE,medium,0.669,560025,12.945956,77.625258
405,Kamineni Ophthalmology Institute,Bangalore,Tier-1,Ophthalmology,4.2,TRUE,high,0.888,560025,12.934196,77.671069
406,Bangalore Urology Medical Center,Bangalore,Tier-1,Urology,4.6,TRUE,high,0.992,560004,12.889282,77.640912
407,City Pulmonology Institute,Bangalore,Tier-1,Pulmonology,4.5,TRUE,high,0.841,560025,13.063428,77.655133
408,Sterling Orthopedics Hospital,Bangalore,Tier-1,Orthopedics,4.2,TRUE,medium,0.619,560102,12.853754,77.632867
409,SAL Neurology Clinic,Bangalore,Tier-1,Neurology,4.4,TRUE,high,0.776,560002,12.994449,77.679077
410,Bangalore Pulmonology Super Speciality Hospital,Bangalore,Tier-1,Pulmonology,3,FALSE,low,0.109,560025,12.861139,77.548311
411,Bangalore Psychiatry Clinic,Bangalore,Tier-1,Psychiatry,4.3,TRUE,high,0.894,560086,12.864412,77.511471
412,Rainbow Nephrology Clinic,Bangalore,Tier-1,Nephrology,3,FALSE,low,0.021,560086,12.890798,77.656609
413,Bangalore Gynaecology Medical Center,Bangalore,Tier-1,Gynaecology,3.9,FALSE,medium,0.685,560086,12.919378,77.660736
414,Prime General Medicine Hospital,Bangalore,Tier-1,General Medicine,4.4,TRUE,high,0.885,560001,12.984267,77.66281
415,Care Gynaecology Super Speciality Hospital,Bangalore,Tier-1,Gynaecology,4.6,TRUE,high,0.861,560002,12.88467,77.554254
416,Bangalore Oncology Super Speciality Hospital,Bangalore,Tier-1,Oncology,4.2,FALSE,high,0.738,560102,12.883477,77.530025
417,Care Pediatrics Institute,Bangalore,Tier-1,Pediatrics,4.4,TRUE,high,0.843,560025,12.967256,77.528312
418,Prime Pediatrics Clinic,Bangalore,Tier-1,Pediatrics,3.7,FALSE,medium,0.655,560025,12.920253,77.640284
419,Prime Nephrology Super Speciality Hospital,Bangalore,Tier-1,Nephrology,3.5,FALSE,medium,0.41,560002,13.04277,77.575461
420,National General Medicine Super Speciality Hospital,Bangalore,Tier-1,General Medicine,3.7,FALSE,medium,0.586,560002,12.961445,77.695911
421,Unity General Medicine Medical Center,Bangalore,Tier-1,General Medicine,3.7,TRUE,medium,0.537,560102,12.914874,77.699888
422,Sterling Oncology Healthcare,Bangalore,Tier-1,Oncology,4.4,TRUE,high,0.847,560102,12.983116,77.563332
423,Bangalore Oncology Super Speciality Hospital,Bangalore,Tier-1,Oncology,3.9,TRUE,medium,0.461,560002,12.975941,77.531319
424,Bangalore Neurology Clinic,Bangalore,Tier-1,Neurology,3.9,TRUE,medium,0.447,560076,13.004354,77.538371
425,HCG Ophthalmology Healthcare,Bangalore,Tier-1,Ophthalmology,3.8,TRUE,medium,0.591,560025,13.053833,77.629703
426,Deenanath Oncology Hospital,Bangalore,Tier-1,Oncology,4.6,TRUE,high,0.875,560034,13.040141,77.552333
427,Bangalore Urology Super Speciality Hospital,Bangalore,Tier-1,Urology,3.9,FALSE,medium,0.689,560076,13.076684,77.651532
428,Bangalore Gastroenterology Medical Center,Bangalore,Tier-1,Gastroenterology,3.8,FALSE,medium,0.599,560034,13.046473,77.517975
429,Bangalore Gastroenterology Medical Center,Bangalore,Tier-1,Gastroenterology,4.4,TRUE,high,0.892,560001,13.027517,77.604075
430,Global Cardiology Clinic,Bangalore,Tier-1,Cardiology,4.1,TRUE,high,0.826,560076,12.989123,77.590291
431,Bangalore Cardiology Institute,Bangalore,Tier-1,Cardiology,3.9,FALSE,medium,0.61,560076,12.932304,77.571479
432,City Ophthalmology Hospital,Bangalore,Tier-1,Ophthalmology,4.2,TRUE,high,0.705,560102,12.959517,77.613358
433,Sri Gynaecology Institute,Bangalore,Tier-1,Gynaecology,4.6,TRUE,high,0.916,560025,12.939263,77.620894
434,Prime Cardiology Medical Center,Bangalore,Tier-1,Cardiology,4.1,TRUE,high,0.708,560102,13.092668,77.642348
435,Kamineni ENT Super Speciality Hospital,Bangalore,Tier-1,ENT,4.1,TRUE,high,0.88,560025,12.9299,77.614935
436,Fortis Cardiology Healthcare,Bangalore,Tier-1,Cardiology,4.1,TRUE,medium,0.63,560076,12.861251,77.666143
437,Care Gastroenterology Clinic,Bangalore,Tier-1,Gastroenterology,4,TRUE,high,0.737,560102,12.940552,77.621084
438,Bangalore Cardiology Super Speciality Hospital,Bangalore,Tier-1,Cardiology,4.5,TRUE,high,0.801,560076,12.903084,77.666589
439,Bangalore Gastroenterology Institute,Bangalore,Tier-1,Gastroenterology,3.5,FALSE,medium,0.418,560034,13.049249,77.537202
440,Bangalore Pediatrics Medical Center,Bangalore,Tier-1,Pediatrics,3.7,TRUE,medium,0.609,560034,12.998728,77.614912
441,SAL Orthopedics Hospital,Bangalore,Tier-1,Orthopedics,4,FALSE,high,0.729,560034,12.98207,77.542909
442,Ruby Nephrology Healthcare,Bangalore,Tier-1,Nephrology,4.5,TRUE,high,0.815,560086,13.069456,77.528951
443,Bangalore Orthopedics Hospital,Bangalore,Tier-1,Orthopedics,3.8,FALSE,medium,0.643,560025,12.855866,77.582646
444,Fortis Pulmonology Medical Center,Bangalore,Tier-1,Pulmonology,3.2,FALSE,low,0.081,560004,13.00714,77.677689
445,Fortis Neurology Institute,Bangalore,Tier-1,Neurology,4.1,FALSE,high,0.886,560034,12.868954,77.524132
446,Prime Pulmonology Institute,Bangalore,Tier-1,Pulmonology,4.4,FALSE,high,0.838,560086,13.024642,77.509972
447,Care Urology Super Speciality Hospital,Bangalore,Tier-1,Urology,4.1,TRUE,medium,0.567,560076,12.946823,77.518625
448,National Psychiatry Healthcare,Bangalore,Tier-1,Psychiatry,3,FALSE,low,0.142,560002,13.013499,77.538008
449,Sterling Urology Super Speciality Hospital,Bangalore,Tier-1,Urology,3.3,FALSE,low,0.363,560086,12.95679,77.698385
450,Bangalore Dermatology Hospital,Bangalore,Tier-1,Dermatology,4.1,TRUE,high,0.895,560034,13.090994,77.517941
451,KIMS Pulmonology Healthcare,Hyderabad,Tier-1,Pulmonology,3.9,FALSE,medium,0.534,500002,17.435796,78.393708
452,Deenanath Cardiology Medical Center,Hyderabad,Tier-1,Cardiology,3,TRUE,low,0.007,500004,17.385528,78.405815
453,National Pediatrics Medical Center,Hyderabad,Tier-1,Pediatrics,3.8,TRUE,medium,0.636,500002,17.440163,78.47586
454,Sri General Medicine Super Speciality Hospital,Hyderabad,Tier-1,General Medicine,4.2,TRUE,high,0.815,500016,17.327608,78.344326
455,Metro Oncology Super Speciality Hospital,Hyderabad,Tier-1,Oncology,4.2,TRUE,high,0.876,500002,17.430317,78.452049
456,Hyderabad Orthopedics Institute,Hyderabad,Tier-1,Orthopedics,4.1,TRUE,high,0.95,500034,17.316555,78.37138
457,Hyderabad General Medicine Medical Center,Hyderabad,Tier-1,General Medicine,3.4,FALSE,low,0.261,500002,17.35451,78.519039
458,Unity Cardiology Medical Center,Hyderabad,Tier-1,Cardiology,3.6,FALSE,low,0.356,500034,17.415335,78.413113
459,Apollo Dermatology Super Speciality Hospital,Hyderabad,Tier-1,Dermatology,4.2,TRUE,high,0.767,500016,17.452186,78.456132
460,Care Cardiology Healthcare,Hyderabad,Tier-1,Cardiology,3.8,TRUE,medium,0.523,500004,17.415933,78.509129
461,Hyderabad Ophthalmology Super Speciality Hospital,Hyderabad,Tier-1,Ophthalmology,3.6,FALSE,medium,0.527,500034,17.306989,78.323378
462,Fortis Oncology Hospital,Hyderabad,Tier-1,Oncology,3.8,TRUE,high,0.721,500002,17.383712,78.399014
463,Hyderabad Psychiatry Institute,Hyderabad,Tier-1,Psychiatry,3.2,FALSE,low,0.063,500095,17.454518,78.525021
464,Hyderabad Cardiology Healthcare,Hyderabad,Tier-1,Cardiology,4,TRUE,high,0.836,500016,17.367829,78.321776
465,Hyderabad Pediatrics Healthcare,Hyderabad,Tier-1,Pediatrics,4.2,TRUE,high,0.836,500034,17.367668,78.403944
466,Hyderabad Urology Super Speciality Hospital,Hyderabad,Tier-1,Urology,3.7,FALSE,medium,0.412,500001,17.446903,78.507769
467,Care Cardiology Hospital,Hyderabad,Tier-1,Cardiology,4,TRUE,high,0.746,500082,17.403939,78.430727
468,Yashoda Neurology Healthcare,Hyderabad,Tier-1,Neurology,4.4,TRUE,high,0.891,500082,17.340491,78.449512
469,Rainbow Oncology Healthcare,Hyderabad,Tier-1,Oncology,4.6,TRUE,high,0.992,500001,17.404419,78.353278
470,SAL Dermatology Healthcare,Hyderabad,Tier-1,Dermatology,3.9,TRUE,medium,0.655,500082,17.479602,78.335364
471,Hyderabad ENT Institute,Hyderabad,Tier-1,ENT,4.1,FALSE,high,0.812,500004,17.414569,78.430705
472,Hyderabad Oncology Institute,Hyderabad,Tier-1,Oncology,3.7,FALSE,medium,0.552,500082,17.477712,78.368602
473,Sterling Oncology Clinic,Hyderabad,Tier-1,Oncology,4.2,TRUE,high,0.843,500034,17.475503,78.32019
474,Global Oncology Institute,Hyderabad,Tier-1,Oncology,3.4,TRUE,medium,0.416,500001,17.334746,78.519188
475,Hyderabad Orthopedics Medical Center,Hyderabad,Tier-1,Orthopedics,3.1,TRUE,low,0.006,500016,17.41029,78.395217
476,Prime Nephrology Institute,Hyderabad,Tier-1,Nephrology,3.1,FALSE,low,0.181,500004,17.341242,78.353062
477,City Nephrology Medical Center,Hyderabad,Tier-1,Nephrology,3,TRUE,low,0.053,500004,17.449115,78.355651
478,HCG General Medicine Healthcare,Hyderabad,Tier-1,General Medicine,3.6,FALSE,medium,0.464,500082,17.431854,78.300352
479,Hyderabad Nephrology Institute,Hyderabad,Tier-1,Nephrology,3.1,TRUE,low,0.171,500004,17.461098,78.333904
480,Care Orthopedics Healthcare,Hyderabad,Tier-1,Orthopedics,3.8,TRUE,medium,0.512,500004,17.495105,78.346238
481,Hyderabad Cardiology Clinic,Hyderabad,Tier-1,Cardiology,3.4,FALSE,low,0.235,500034,17.365883,78.375611
482,National Orthopedics Super Speciality Hospital,Hyderabad,Tier-1,Orthopedics,3.9,TRUE,high,0.811,500016,17.364486,78.3246
483,Hyderabad Dermatology Hospital,Hyderabad,Tier-1,Dermatology,4.3,TRUE,high,0.731,500034,17.33343,78.404169
484,Hyderabad Cardiology Clinic,Hyderabad,Tier-1,Cardiology,3.6,FALSE,medium,0.557,500004,17.468927,78.34612
485,Care Gynaecology Medical Center,Hyderabad,Tier-1,Gynaecology,4.5,TRUE,high,0.949,500004,17.346869,78.467815
486,Unity Pediatrics Super Speciality Hospital,Hyderabad,Tier-1,Pediatrics,3.3,FALSE,low,0.373,500095,17.394585,78.399369
487,Yashoda Cardiology Institute,Hyderabad,Tier-1,Cardiology,4.3,TRUE,high,0.838,500016,17.323492,78.382485
488,Hyderabad Cardiology Institute,Hyderabad,Tier-1,Cardiology,3.8,TRUE,medium,0.401,500082,17.490429,78.523486
489,KIMS Dermatology Medical Center,Hyderabad,Tier-1,Dermatology,4.3,TRUE,high,0.954,500082,17.449581,78.499205
490,Hyderabad Psychiatry Super Speciality Hospital,Hyderabad,Tier-1,Psychiatry,4,FALSE,medium,0.593,500001,17.328626,78.371936
491,Metro Gastroenterology Super Speciality Hospital,Hyderabad,Tier-1,Gastroenterology,4.5,TRUE,high,0.87,500001,17.419584,78.512702
492,National Oncology Super Speciality Hospital,Hyderabad,Tier-1,Oncology,4.7,TRUE,high,0.971,500004,17.471323,78.310511
493,Unity ENT Super Speciality Hospital,Hyderabad,Tier-1,ENT,4.2,TRUE,high,0.705,500034,17.370008,78.462043
494,Fortis Cardiology Healthcare,Hyderabad,Tier-1,Cardiology,4.1,TRUE,medium,0.68,500004,17.37848,78.489774
495,Fortis General Medicine Institute,Hyderabad,Tier-1,General Medicine,4.5,TRUE,high,0.919,500095,17.329078,78.329197
496,Care Pediatrics Hospital,Hyderabad,Tier-1,Pediatrics,3.6,TRUE,medium,0.562,500002,17.39971,78.312532
497,Hyderabad Gastroenterology Healthcare,Hyderabad,Tier-1,Gastroenterology,4.4,TRUE,high,0.789,500034,17.430886,78.384521
498,Sterling Dermatology Healthcare,Hyderabad,Tier-1,Dermatology,3.8,FALSE,medium,0.446,500004,17.384178,78.474912
499,Care Ophthalmology Medical Center,Hyderabad,Tier-1,Ophthalmology,4.3,TRUE,high,0.723,500082,17.424194,78.428646
500,Hyderabad Ophthalmology Healthcare,Hyderabad,Tier-1,Ophthalmology,4.3,TRUE,high,0.713,500034,17.356919,78.54574
501,Prime Oncology Institute,Hyderabad,Tier-1,Oncology,3.3,FALSE,low,0.259,500095,17.493062,78.373274
502,Deenanath Dermatology Healthcare,Hyderabad,Tier-1,Dermatology,4.1,TRUE,high,0.818,500095,17.41613,78.425898
503,Kamineni Ophthalmology Institute,Hyderabad,Tier-1,Ophthalmology,4.1,TRUE,high,0.954,500001,17.367575,78.454819
504,Poona General Medicine Medical Center,Hyderabad,Tier-1,General Medicine,3.9,TRUE,high,0.784,500082,17.323066,78.535219
505,Hyderabad Gynaecology Healthcare,Hyderabad,Tier-1,Gynaecology,4.2,TRUE,high,0.747,500034,17.341771,78.505203
506,City Cardiology Healthcare,Hyderabad,Tier-1,Cardiology,4.1,FALSE,medium,0.687,500095,17.311009,78.517379
507,SAL ENT Healthcare,Hyderabad,Tier-1,ENT,4.1,FALSE,medium,0.515,500016,17.386143,78.484894
508,City Oncology Healthcare,Hyderabad,Tier-1,Oncology,3.8,TRUE,medium,0.594,500016,17.368546,78.419353
509,Apollo Cardiology Super Speciality Hospital,Hyderabad,Tier-1,Cardiology,4.4,TRUE,high,0.847,500016,17.434991,78.332512
510,City Cardiology Clinic,Hyderabad,Tier-1,Cardiology,3.7,FALSE,medium,0.42,500001,17.475248,78.38516
511,Deenanath Nephrology Super Speciality Hospital,Hyderabad,Tier-1,Nephrology,3.6,FALSE,low,0.288,500001,17.378735,78.317891
512,KIMS Nephrology Healthcare,Hyderabad,Tier-1,Nephrology,3.3,FALSE,low,0.111,500016,17.30283,78.354397
513,Fortis Pulmonology Healthcare,Hyderabad,Tier-1,Pulmonology,4.1,TRUE,medium,0.631,500082,17.331987,78.346603
514,HCG Nephrology Medical Center,Hyderabad,Tier-1,Nephrology,4.1,TRUE,high,0.856,500095,17.35647,78.467116
515,Sahyadri Orthopedics Super Speciality Hospital,Hyderabad,Tier-1,Orthopedics,4.1,TRUE,medium,0.637,500001,17.439825,78.372465
516,Unity Oncology Institute,Hyderabad,Tier-1,Oncology,3.2,FALSE,low,0.105,500001,17.440302,78.309256
517,KIMS Cardiology Medical Center,Hyderabad,Tier-1,Cardiology,3,FALSE,low,0.109,500002,17.474701,78.334305
518,Unity Dermatology Hospital,Hyderabad,Tier-1,Dermatology,3.5,FALSE,low,0.215,500004,17.421433,78.32725
519,Continental General Medicine Clinic,Hyderabad,Tier-1,General Medicine,4.5,TRUE,high,0.963,500001,17.396706,78.547264
520,Sterling Gynaecology Medical Center,Hyderabad,Tier-1,Gynaecology,3.2,FALSE,low,0.217,500016,17.350079,78.368559
521,SAL Dermatology Super Speciality Hospital,Hyderabad,Tier-1,Dermatology,4.3,TRUE,high,0.975,500082,17.498426,78.445287
522,Hyderabad Gynaecology Healthcare,Hyderabad,Tier-1,Gynaecology,4,TRUE,high,0.774,500001,17.401163,78.401782
523,KIMS Orthopedics Medical Center,Hyderabad,Tier-1,Orthopedics,4.4,TRUE,high,0.937,500002,17.310688,78.374653
524,National Pediatrics Institute,Hyderabad,Tier-1,Pediatrics,3.1,TRUE,low,0.185,500082,17.473535,78.472278
525,KIMS Oncology Institute,Hyderabad,Tier-1,Oncology,4.1,TRUE,high,0.866,500082,17.42545,78.415027
526,Unity Pediatrics Institute,Hyderabad,Tier-1,Pediatrics,3.7,TRUE,medium,0.411,500082,17.471029,78.38315
527,Hyderabad ENT Hospital,Hyderabad,Tier-1,ENT,3.7,FALSE,low,0.243,500001,17.485996,78.418799
528,SAL Gastroenterology Clinic,Hyderabad,Tier-1,Gastroenterology,4.3,TRUE,high,0.748,500082,17.40801,78.349443
529,Hyderabad Gastroenterology Hospital,Hyderabad,Tier-1,Gastroenterology,3.4,FALSE,low,0.066,500001,17.429731,78.474686
530,KIMS Cardiology Clinic,Hyderabad,Tier-1,Cardiology,4.2,FALSE,medium,0.685,500004,17.327347,78.388013
531,Yashoda Cardiology Healthcare,Hyderabad,Tier-1,Cardiology,3.4,TRUE,low,0.308,500082,17.424248,78.304623
532,Hyderabad Pediatrics Institute,Hyderabad,Tier-1,Pediatrics,3.2,FALSE,low,0.055,500002,17.34208,78.337699
533,Sahyadri Pediatrics Medical Center,Hyderabad,Tier-1,Pediatrics,4.4,TRUE,high,0.734,500004,17.457759,78.353706
534,Hyderabad Oncology Healthcare,Hyderabad,Tier-1,Oncology,3.2,FALSE,low,0.212,500034,17.484032,78.314676
535,Care Psychiatry Clinic,Hyderabad,Tier-1,Psychiatry,4.4,FALSE,high,0.847,500001,17.490679,78.4974
536,Hyderabad General Medicine Super Speciality Hospital,Hyderabad,Tier-1,General Medicine,3.8,FALSE,medium,0.507,500095,17.302777,78.488356
537,Care Cardiology Medical Center,Hyderabad,Tier-1,Cardiology,4,FALSE,medium,0.607,500002,17.393426,78.384978
538,Kamineni Gastroenterology Medical Center,Hyderabad,Tier-1,Gastroenterology,3.1,FALSE,low,0.176,500016,17.310455,78.365031
539,Apollo Ophthalmology Super Speciality Hospital,Hyderabad,Tier-1,Ophthalmology,3.3,FALSE,low,0.337,500001,17.313728,78.442282
540,Yashoda Pulmonology Medical Center,Hyderabad,Tier-1,Pulmonology,4.1,TRUE,medium,0.596,500095,17.398771,78.548538
541,Metro General Medicine Institute,Hyderabad,Tier-1,General Medicine,4,TRUE,medium,0.601,500002,17.422282,78.338291
542,Kamineni ENT Institute,Hyderabad,Tier-1,ENT,3.7,TRUE,medium,0.519,500016,17.39368,78.513405
543,Hyderabad Pediatrics Institute,Hyderabad,Tier-1,Pediatrics,4.3,TRUE,high,0.912,500001,17.3513,78.329639
544,Poona Neurology Super Speciality Hospital,Hyderabad,Tier-1,Neurology,4.1,TRUE,medium,0.607,500002,17.417489,78.371216
545,Continental Gastroenterology Clinic,Hyderabad,Tier-1,Gastroenterology,4,FALSE,high,0.788,500095,17.361721,78.503968
546,Hyderabad Gastroenterology Institute,Hyderabad,Tier-1,Gastroenterology,4.1,FALSE,high,0.778,500034,17.457967,78.342796
547,Hyderabad Cardiology Clinic,Hyderabad,Tier-1,Cardiology,4.2,FALSE,high,0.791,500082,17.49165,78.345783
548,Hyderabad Cardiology Clinic,Hyderabad,Tier-1,Cardiology,4,TRUE,medium,0.506,500004,17.363953,78.459238
549,Hyderabad Pediatrics Super Speciality Hospital,Hyderabad,Tier-1,Pediatrics,4,TRUE,high,0.883,500095,17.461873,78.336521
550,Hyderabad Oncology Institute,Hyderabad,Tier-1,Oncology,3.7,TRUE,medium,0.62,500082,17.476488,78.364201
551,Hyderabad Ophthalmology Clinic,Hyderabad,Tier-1,Ophthalmology,3.2,FALSE,low,0.277,500034,17.469976,78.444092
552,Poona Neurology Super Speciality Hospital,Hyderabad,Tier-1,Neurology,4,FALSE,medium,0.669,500095,17.373946,78.439783
553,Hyderabad ENT Healthcare,Hyderabad,Tier-1,ENT,4.4,TRUE,high,0.798,500082,17.43594,78.518229
554,HCG Gynaecology Super Speciality Hospital,Hyderabad,Tier-1,Gynaecology,4,TRUE,medium,0.46,500082,17.307907,78.364008
555,National Urology Super Speciality Hospital,Hyderabad,Tier-1,Urology,4.4,TRUE,high,0.817,500082,17.455628,78.496154
556,Care Gynaecology Healthcare,Hyderabad,Tier-1,Gynaecology,3.1,FALSE,low,0.006,500001,17.402303,78.528379
557,Hyderabad Gastroenterology Medical Center,Hyderabad,Tier-1,Gastroenterology,3.5,FALSE,low,0.347,500001,17.340421,78.385818
558,Sri Cardiology Hospital,Hyderabad,Tier-1,Cardiology,4.5,TRUE,high,0.934,500004,17.448972,78.350059
559,SAL General Medicine Hospital,Hyderabad,Tier-1,General Medicine,3.7,TRUE,medium,0.402,500082,17.413436,78.522864
560,Hyderabad Orthopedics Institute,Hyderabad,Tier-1,Orthopedics,3.8,FALSE,medium,0.617,500034,17.373172,78.429968
561,Deenanath Oncology Healthcare,Hyderabad,Tier-1,Oncology,3.9,FALSE,medium,0.502,500004,17.345523,78.437858
562,Unity Gynaecology Super Speciality Hospital,Hyderabad,Tier-1,Gynaecology,3.7,FALSE,medium,0.423,500082,17.461726,78.484134
563,Sterling Oncology Institute,Hyderabad,Tier-1,Oncology,3.8,FALSE,medium,0.415,500082,17.436896,78.351917
564,Unity Orthopedics Super Speciality Hospital,Hyderabad,Tier-1,Orthopedics,3.9,TRUE,high,0.718,500001,17.460718,78.330385
565,Sri General Medicine Medical Center,Hyderabad,Tier-1,General Medicine,3.4,FALSE,low,0.096,500016,17.413324,78.379181
566,Hyderabad Pediatrics Super Speciality Hospital,Hyderabad,Tier-1,Pediatrics,3.9,TRUE,high,0.712,500001,17.3019,78.386521
567,National Gynaecology Hospital,Hyderabad,Tier-1,Gynaecology,4.2,TRUE,high,0.967,500082,17.429169,78.5055
568,Hyderabad Orthopedics Healthcare,Hyderabad,Tier-1,Orthopedics,3.5,FALSE,low,0.111,500082,17.434555,78.400411
569,Prime Orthopedics Super Speciality Hospital,Hyderabad,Tier-1,Orthopedics,4.5,TRUE,high,0.919,500082,17.494253,78.485487
570,Hyderabad Nephrology Healthcare,Hyderabad,Tier-1,Nephrology,4,FALSE,high,0.866,500082,17.367674,78.530871
571,City Neurology Clinic,Hyderabad,Tier-1,Neurology,4.4,TRUE,high,0.765,500095,17.332094,78.34285
572,Yashoda Gynaecology Medical Center,Hyderabad,Tier-1,Gynaecology,4.8,FALSE,high,0.998,500095,17.437296,78.439694
573,Fortis Gynaecology Super Speciality Hospital,Hyderabad,Tier-1,Gynaecology,4,FALSE,high,0.744,500016,17.333208,78.478857
574,National Dermatology Hospital,Hyderabad,Tier-1,Dermatology,3.9,FALSE,medium,0.54,500004,17.381167,78.534787
575,Hyderabad Gastroenterology Hospital,Hyderabad,Tier-1,Gastroenterology,4.2,TRUE,high,0.764,500002,17.356235,78.378396
576,National Gynaecology Healthcare,Hyderabad,Tier-1,Gynaecology,3.7,TRUE,medium,0.576,500034,17.40624,78.337332
577,Ruby Pediatrics Clinic,Hyderabad,Tier-1,Pediatrics,4.3,TRUE,high,0.959,500004,17.398569,78.486214
578,Hyderabad Gastroenterology Institute,Hyderabad,Tier-1,Gastroenterology,4.5,TRUE,high,0.996,500034,17.380996,78.452248
579,Hyderabad Gastroenterology Hospital,Hyderabad,Tier-1,Gastroenterology,4.1,TRUE,high,0.885,500016,17.376393,78.355121
580,Hyderabad Nephrology Medical Center,Hyderabad,Tier-1,Nephrology,4.5,TRUE,high,0.844,500001,17.404044,78.337065
581,Sri Pediatrics Hospital,Hyderabad,Tier-1,Pediatrics,3.6,FALSE,medium,0.461,500004,17.302678,78.441662
582,Hyderabad Neurology Hospital,Hyderabad,Tier-1,Neurology,3.9,FALSE,medium,0.654,500082,17.312569,78.445784
583,Hyderabad Orthopedics Clinic,Hyderabad,Tier-1,Orthopedics,4.1,TRUE,medium,0.527,500016,17.496481,78.457662
584,Prime Orthopedics Hospital,Hyderabad,Tier-1,Orthopedics,3.2,FALSE,low,0.007,500034,17.375203,78.46234
585,Deenanath General Medicine Healthcare,Hyderabad,Tier-1,General Medicine,4.4,TRUE,high,0.752,500095,17.383721,78.416795
586,Apollo Oncology Institute,Hyderabad,Tier-1,Oncology,3.4,FALSE,low,0.138,500034,17.342321,78.521437
587,Hyderabad General Medicine Hospital,Hyderabad,Tier-1,General Medicine,4.1,FALSE,medium,0.621,500001,17.354533,78.367332
588,SAL ENT Institute,Hyderabad,Tier-1,ENT,4.3,TRUE,high,0.967,500002,17.459247,78.42736
589,Yashoda Orthopedics Healthcare,Hyderabad,Tier-1,Orthopedics,3.9,TRUE,medium,0.56,500016,17.42827,78.330732
590,HCG General Medicine Medical Center,Hyderabad,Tier-1,General Medicine,3.7,FALSE,medium,0.595,500004,17.466128,78.462604
591,KIMS Urology Hospital,Hyderabad,Tier-1,Urology,3,FALSE,low,0.138,500082,17.441298,78.505254
592,KIMS Urology Institute,Hyderabad,Tier-1,Urology,4,TRUE,high,0.829,500082,17.325696,78.348251
593,SAL Neurology Medical Center,Hyderabad,Tier-1,Neurology,3.2,TRUE,low,0.127,500002,17.351398,78.371356
594,National General Medicine Hospital,Hyderabad,Tier-1,General Medicine,4.7,TRUE,high,0.988,500001,17.300963,78.33517
595,Hyderabad Cardiology Healthcare,Hyderabad,Tier-1,Cardiology,4.2,TRUE,high,0.981,500002,17.349225,78.360434
596,Hyderabad Dermatology Institute,Hyderabad,Tier-1,Dermatology,4.4,FALSE,high,0.805,500016,17.352241,78.477128
597,Poona Dermatology Clinic,Hyderabad,Tier-1,Dermatology,4.1,TRUE,high,0.795,500004,17.43803,78.534276
598,KIMS Oncology Medical Center,Hyderabad,Tier-1,Oncology,3.4,TRUE,medium,0.407,500002,17.322631,78.384905
599,Metro Pediatrics Institute,Hyderabad,Tier-1,Pediatrics,4.2,TRUE,medium,0.656,500002,17.343362,78.481114
600,Rainbow Pediatrics Medical Center,Hyderabad,Tier-1,Pediatrics,4.2,TRUE,high,0.784,500004,17.439136,78.421672
601,Chennai General Medicine Medical Center,Chennai,Tier-1,General Medicine,3.9,FALSE,high,0.783,600004,13.172829,80.151811
602,Care Orthopedics Healthcare,Chennai,Tier-1,Orthopedics,3.7,TRUE,medium,0.532,600034,13.153161,80.197919
603,Chennai Neurology Super Speciality Hospital,Chennai,Tier-1,Neurology,3.9,TRUE,medium,0.67,600034,12.926139,80.233074
604,Chennai Ophthalmology Clinic,Chennai,Tier-1,Ophthalmology,4.2,TRUE,high,0.902,600090,13.042001,80.208488
605,Sahyadri ENT Healthcare,Chennai,Tier-1,ENT,4.7,TRUE,high,0.944,600001,13.065206,80.142426
606,Metro Oncology Hospital,Chennai,Tier-1,Oncology,4.2,TRUE,high,0.86,600004,12.937941,80.290299
607,HCG Urology Hospital,Chennai,Tier-1,Urology,4.1,TRUE,high,0.728,600004,12.927329,80.115965
608,Deenanath Oncology Clinic,Chennai,Tier-1,Oncology,4.1,TRUE,high,0.85,600014,13.033239,80.267785
609,National Orthopedics Clinic,Chennai,Tier-1,Orthopedics,4.2,FALSE,high,0.769,600034,13.031206,80.233296
610,Apollo Gynaecology Institute,Chennai,Tier-1,Gynaecology,4,FALSE,medium,0.479,600090,12.964869,80.232817
611,Apollo Neurology Clinic,Chennai,Tier-1,Neurology,3.7,TRUE,medium,0.428,600004,12.975596,80.120652
612,Kamineni Gynaecology Institute,Chennai,Tier-1,Gynaecology,3.4,TRUE,low,0.342,600004,12.903116,80.242135
613,Apollo ENT Hospital,Chennai,Tier-1,ENT,4.2,TRUE,high,0.934,600090,12.914855,80.119822
614,Chennai Gynaecology Healthcare,Chennai,Tier-1,Gynaecology,4,TRUE,high,0.832,600001,13.054041,80.219122
615,Deenanath Gastroenterology Hospital,Chennai,Tier-1,Gastroenterology,4.5,TRUE,high,0.856,600001,12.947542,80.272233
616,Chennai Pediatrics Institute,Chennai,Tier-1,Pediatrics,4.2,TRUE,medium,0.636,600004,13.054646,80.100265
617,Fortis Nephrology Super Speciality Hospital,Chennai,Tier-1,Nephrology,3.9,FALSE,medium,0.675,600006,12.981197,80.10254
618,Chennai Pediatrics Clinic,Chennai,Tier-1,Pediatrics,3.7,TRUE,medium,0.441,600001,13.138208,80.253559
619,Chennai Oncology Hospital,Chennai,Tier-1,Oncology,3.4,FALSE,low,0.156,600001,12.949884,80.181219
620,Chennai Ophthalmology Hospital,Chennai,Tier-1,Ophthalmology,3.8,TRUE,medium,0.515,600034,13.00486,80.169604
621,Ruby Gastroenterology Institute,Chennai,Tier-1,Gastroenterology,4.2,TRUE,medium,0.67,600006,13.061944,80.116478
622,Chennai Orthopedics Healthcare,Chennai,Tier-1,Orthopedics,4.3,TRUE,high,0.742,600002,13.047866,80.233739
623,Care Orthopedics Clinic,Chennai,Tier-1,Orthopedics,4.1,TRUE,high,0.743,600004,13.090766,80.22703
624,Kamineni Pediatrics Clinic,Chennai,Tier-1,Pediatrics,4.3,TRUE,high,0.895,600002,13.008213,80.110826
625,Sri Gastroenterology Clinic,Chennai,Tier-1,Gastroenterology,3,FALSE,low,0.045,600090,13.105535,80.282369
626,City Gynaecology Institute,Chennai,Tier-1,Gynaecology,4.1,TRUE,high,0.825,600006,12.96407,80.277618
627,Sri Psychiatry Healthcare,Chennai,Tier-1,Psychiatry,4,TRUE,medium,0.579,600001,13.125776,80.264
628,Sterling Psychiatry Hospital,Chennai,Tier-1,Psychiatry,4.4,TRUE,high,0.922,600004,12.987835,80.284901
629,Chennai Nephrology Clinic,Chennai,Tier-1,Nephrology,4.2,TRUE,high,0.789,600001,12.937037,80.209348
630,Chennai Orthopedics Super Speciality Hospital,Chennai,Tier-1,Orthopedics,4.3,TRUE,high,0.913,600006,12.905018,80.184067
631,Deenanath Pediatrics Clinic,Chennai,Tier-1,Pediatrics,3.4,TRUE,low,0.182,600014,13.119014,80.228272
632,Chennai Orthopedics Healthcare,Chennai,Tier-1,Orthopedics,3.9,TRUE,high,0.735,600014,13.119296,80.103339
633,Chennai Dermatology Clinic,Chennai,Tier-1,Dermatology,3.9,TRUE,medium,0.479,600004,13.032749,80.251551
634,Chennai Nephrology Healthcare,Chennai,Tier-1,Nephrology,4.2,FALSE,medium,0.626,600090,12.906935,80.259618
635,Sterling Gynaecology Medical Center,Chennai,Tier-1,Gynaecology,3.6,TRUE,low,0.226,600090,13.120929,80.213901
636,Metro Dermatology Super Speciality Hospital,Chennai,Tier-1,Dermatology,4.3,TRUE,high,0.838,600006,13.113599,80.220585
637,Fortis Psychiatry Medical Center,Chennai,Tier-1,Psychiatry,3.6,FALSE,low,0.261,600002,12.984155,80.210858
638,KIMS Neurology Clinic,Chennai,Tier-1,Neurology,3.7,FALSE,low,0.381,600014,13.177688,80.285598
639,National Orthopedics Institute,Chennai,Tier-1,Orthopedics,4.3,TRUE,high,0.799,600002,12.927515,80.10805
640,Apollo Orthopedics Healthcare,Chennai,Tier-1,Orthopedics,3.9,TRUE,medium,0.425,600002,12.937698,80.254765
641,Unity Orthopedics Healthcare,Chennai,Tier-1,Orthopedics,4.6,TRUE,high,0.926,600034,12.969294,80.262396
642,Metro Gastroenterology Hospital,Chennai,Tier-1,Gastroenterology,3.7,FALSE,medium,0.609,600004,13.143136,80.160854
643,Chennai Orthopedics Super Speciality Hospital,Chennai,Tier-1,Orthopedics,4.2,TRUE,high,0.817,600001,12.959887,80.223236
644,Apollo Orthopedics Medical Center,Chennai,Tier-1,Orthopedics,3.9,FALSE,medium,0.421,600014,12.914854,80.162573
645,Yashoda ENT Clinic,Chennai,Tier-1,ENT,4.1,FALSE,high,0.871,600014,13.115853,80.173706
646,KIMS Gynaecology Institute,Chennai,Tier-1,Gynaecology,3.6,TRUE,medium,0.419,600014,12.97916,80.226628
647,Chennai ENT Clinic,Chennai,Tier-1,ENT,3.1,TRUE,low,0.052,600090,12.917852,80.259591
648,Chennai Cardiology Medical Center,Chennai,Tier-1,Cardiology,3.1,TRUE,low,0.082,600034,13.021578,80.218904
649,Chennai Neurology Clinic,Chennai,Tier-1,Neurology,4.2,TRUE,high,0.777,600034,12.926907,80.165573
650,Poona General Medicine Super Speciality Hospital,Chennai,Tier-1,General Medicine,3.5,TRUE,low,0.135,600014,13.153214,80.129735
651,Care Neurology Clinic,Chennai,Tier-1,Neurology,3.6,TRUE,medium,0.401,600090,13.181246,80.170535
652,Sri Pediatrics Medical Center,Chennai,Tier-1,Pediatrics,4.1,TRUE,high,0.8,600034,13.07842,80.211669
653,Chennai Oncology Medical Center,Chennai,Tier-1,Oncology,4.4,TRUE,high,0.943,600014,13.168793,80.143761
654,Chennai Neurology Clinic,Chennai,Tier-1,Neurology,4.3,TRUE,high,0.91,600001,12.95636,80.244378
655,Chennai General Medicine Hospital,Chennai,Tier-1,General Medicine,4,FALSE,medium,0.501,600090,12.906071,80.22133
656,Deenanath Psychiatry Super Speciality Hospital,Chennai,Tier-1,Psychiatry,4.1,FALSE,medium,0.67,600014,13.121072,80.188348
657,Deenanath Cardiology Healthcare,Chennai,Tier-1,Cardiology,4.4,TRUE,high,0.819,600014,13.182571,80.286882
658,KIMS Neurology Institute,Chennai,Tier-1,Neurology,4.2,TRUE,high,0.827,600001,13.052888,80.160576
659,Chennai Gastroenterology Super Speciality Hospital,Chennai,Tier-1,Gastroenterology,4.1,TRUE,high,0.861,600004,12.961337,80.172569
660,Chennai General Medicine Medical Center,Chennai,Tier-1,General Medicine,3.9,TRUE,medium,0.538,600006,12.913849,80.260399
661,Chennai Nephrology Medical Center,Chennai,Tier-1,Nephrology,3.3,FALSE,low,0.154,600090,12.95504,80.197035
662,Chennai Ophthalmology Medical Center,Chennai,Tier-1,Ophthalmology,4.3,TRUE,high,0.767,600004,13.18063,80.200503
663,HCG Urology Institute,Chennai,Tier-1,Urology,4,TRUE,high,0.868,600006,13.05974,80.295285
664,Chennai Urology Clinic,Chennai,Tier-1,Urology,3.7,TRUE,medium,0.523,600004,12.958513,80.178996
665,Unity Cardiology Clinic,Chennai,Tier-1,Cardiology,3,FALSE,low,0.211,600004,12.906159,80.274831
666,Chennai Oncology Institute,Chennai,Tier-1,Oncology,4.2,FALSE,high,0.816,600034,13.117356,80.230417
667,Apollo Dermatology Healthcare,Chennai,Tier-1,Dermatology,3.9,FALSE,medium,0.667,600006,12.991187,80.218921
668,Kamineni Orthopedics Institute,Chennai,Tier-1,Orthopedics,4.1,FALSE,high,0.908,600001,12.903271,80.105755
669,Poona ENT Clinic,Chennai,Tier-1,ENT,4.4,TRUE,high,0.78,600090,13.099188,80.1699
670,Sterling Orthopedics Institute,Chennai,Tier-1,Orthopedics,3.9,TRUE,high,0.713,600004,13.169182,80.225173
671,Chennai Cardiology Medical Center,Chennai,Tier-1,Cardiology,3.8,FALSE,medium,0.611,600002,12.947096,80.244714
672,Chennai Cardiology Clinic,Chennai,Tier-1,Cardiology,4.2,TRUE,high,0.809,600014,13.169945,80.176981
673,Metro Ophthalmology Healthcare,Chennai,Tier-1,Ophthalmology,4.5,TRUE,high,0.857,600006,12.963972,80.195643
674,Sterling Orthopedics Institute,Chennai,Tier-1,Orthopedics,3,FALSE,low,0.043,600090,13.026715,80.277668
675,Chennai Gastroenterology Clinic,Chennai,Tier-1,Gastroenterology,3.3,FALSE,low,0.305,600004,13.109448,80.111482
676,Chennai Gynaecology Medical Center,Chennai,Tier-1,Gynaecology,3.8,FALSE,medium,0.429,600090,12.931112,80.116385
677,Chennai Ophthalmology Clinic,Chennai,Tier-1,Ophthalmology,3.6,FALSE,medium,0.561,600002,13.052572,80.247812
678,Chennai ENT Super Speciality Hospital,Chennai,Tier-1,ENT,3.7,FALSE,medium,0.669,600014,12.996254,80.222345
679,City Oncology Healthcare,Chennai,Tier-1,Oncology,3,FALSE,low,0.043,600004,13.077582,80.185387
680,Continental Cardiology Super Speciality Hospital,Chennai,Tier-1,Cardiology,3.4,FALSE,low,0.129,600002,12.900284,80.229268
681,Global Pediatrics Clinic,Chennai,Tier-1,Pediatrics,3.4,FALSE,low,0.082,600090,13.040297,80.186861
682,Sahyadri General Medicine Healthcare,Chennai,Tier-1,General Medicine,3.6,FALSE,medium,0.554,600006,13.012328,80.127124
683,Care Dermatology Super Speciality Hospital,Chennai,Tier-1,Dermatology,3.6,TRUE,medium,0.438,600001,13.114171,80.261224
684,Chennai ENT Institute,Chennai,Tier-1,ENT,4.3,TRUE,high,0.832,600090,13.093883,80.202379
685,Chennai Pediatrics Institute,Chennai,Tier-1,Pediatrics,4.1,TRUE,medium,0.603,600004,13.19142,80.177195
686,SAL Pediatrics Clinic,Chennai,Tier-1,Pediatrics,4.4,FALSE,high,0.962,600034,12.928996,80.147056
687,Rainbow Cardiology Healthcare,Chennai,Tier-1,Cardiology,4,TRUE,medium,0.581,600002,13.199378,80.28015
688,Chennai Neurology Healthcare,Chennai,Tier-1,Neurology,3.6,FALSE,medium,0.435,600001,12.912854,80.12664
689,Metro Urology Medical Center,Chennai,Tier-1,Urology,3.9,FALSE,medium,0.539,600034,13.136259,80.107282
690,Chennai Ophthalmology Institute,Chennai,Tier-1,Ophthalmology,4.1,TRUE,high,0.735,600001,13.149209,80.149379
691,Chennai Dermatology Institute,Chennai,Tier-1,Dermatology,3,FALSE,low,0.049,600034,13.089586,80.295191
692,Chennai ENT Medical Center,Chennai,Tier-1,ENT,4,TRUE,medium,0.556,600004,12.94028,80.191491
693,Sri Psychiatry Healthcare,Chennai,Tier-1,Psychiatry,4.4,TRUE,high,0.939,600006,12.93531,80.106132
694,Sahyadri Oncology Hospital,Chennai,Tier-1,Oncology,3.9,FALSE,medium,0.605,600002,13.01319,80.244184
695,Kamineni Gynaecology Healthcare,Chennai,Tier-1,Gynaecology,4.1,TRUE,high,0.754,600014,13.145507,80.131584
696,SAL Nephrology Healthcare,Chennai,Tier-1,Nephrology,4.1,TRUE,high,0.848,600006,12.900092,80.154609
697,Chennai Dermatology Clinic,Chennai,Tier-1,Dermatology,3.7,FALSE,low,0.375,600004,13.1532,80.124014
698,Global Neurology Healthcare,Chennai,Tier-1,Neurology,4,TRUE,medium,0.51,600001,13.117684,80.162563
699,National Neurology Healthcare,Chennai,Tier-1,Neurology,3.7,FALSE,low,0.32,600090,13.087166,80.15281
700,Chennai Gastroenterology Hospital,Chennai,Tier-1,Gastroenterology,4.2,TRUE,high,0.855,600004,13.149282,80.192726
701,Sri Cardiology Institute,Chennai,Tier-1,Cardiology,4.3,TRUE,high,0.721,600034,12.93397,80.106035
702,Fortis Ophthalmology Healthcare,Chennai,Tier-1,Ophthalmology,3.5,FALSE,medium,0.459,600001,13.004215,80.100089
703,Chennai Gynaecology Hospital,Chennai,Tier-1,Gynaecology,4.1,TRUE,high,0.817,600090,12.961185,80.111656
704,Continental Gastroenterology Medical Center,Chennai,Tier-1,Gastroenterology,3,FALSE,low,0.121,600001,12.990343,80.230918
705,Sterling Pediatrics Super Speciality Hospital,Chennai,Tier-1,Pediatrics,4.5,TRUE,high,0.924,600014,13.054703,80.266964
706,Sahyadri Orthopedics Super Speciality Hospital,Chennai,Tier-1,Orthopedics,4.4,FALSE,high,0.79,600014,13.089421,80.154403
707,Global Ophthalmology Clinic,Chennai,Tier-1,Ophthalmology,4,TRUE,high,0.797,600090,13.027254,80.218401
708,Care Cardiology Medical Center,Chennai,Tier-1,Cardiology,3.9,FALSE,medium,0.452,600001,13.046532,80.254579
709,Apollo Pediatrics Medical Center,Chennai,Tier-1,Pediatrics,3.8,FALSE,medium,0.438,600002,13.002808,80.186865
710,Global Gastroenterology Hospital,Chennai,Tier-1,Gastroenterology,3,TRUE,low,0.128,600034,13.056849,80.142404
711,Chennai Gastroenterology Hospital,Chennai,Tier-1,Gastroenterology,4.2,FALSE,medium,0.649,600001,13.134508,80.148582
712,HCG Dermatology Medical Center,Chennai,Tier-1,Dermatology,4.2,TRUE,high,0.798,600090,13.05577,80.155006
713,Chennai Dermatology Institute,Chennai,Tier-1,Dermatology,3.2,FALSE,low,0.146,600004,12.987101,80.230397
714,SAL Dermatology Institute,Chennai,Tier-1,Dermatology,3.4,TRUE,low,0.287,600002,13.073609,80.150519
715,Care Gynaecology Clinic,Chennai,Tier-1,Gynaecology,4.1,TRUE,high,0.728,600034,12.98373,80.166875
716,Prime Pediatrics Healthcare,Chennai,Tier-1,Pediatrics,4.2,TRUE,high,0.856,600034,12.989179,80.135035
717,SAL Neurology Clinic,Chennai,Tier-1,Neurology,4.2,FALSE,high,0.971,600002,13.117737,80.143936
718,Chennai Orthopedics Medical Center,Chennai,Tier-1,Orthopedics,3.5,FALSE,low,0.126,600014,12.949086,80.175737
719,Global Dermatology Super Speciality Hospital,Chennai,Tier-1,Dermatology,3.5,FALSE,medium,0.463,600002,12.913994,80.222941
720,Deenanath ENT Hospital,Chennai,Tier-1,ENT,4.4,FALSE,high,0.999,600034,12.963358,80.182087
721,Chennai Gynaecology Hospital,Chennai,Tier-1,Gynaecology,4.3,TRUE,high,0.936,600006,13.061357,80.227528
722,Yashoda Pediatrics Hospital,Chennai,Tier-1,Pediatrics,3.8,TRUE,medium,0.494,600014,13.001638,80.284983
723,HCG Gynaecology Institute,Chennai,Tier-1,Gynaecology,3.9,FALSE,medium,0.463,600090,12.989842,80.165835
724,Deenanath Pulmonology Medical Center,Chennai,Tier-1,Pulmonology,4.1,FALSE,medium,0.599,600014,13.17963,80.153744
725,Unity General Medicine Medical Center,Chennai,Tier-1,General Medicine,4.2,TRUE,high,0.9,600002,13.097065,80.268109
726,Sahyadri Ophthalmology Clinic,Chennai,Tier-1,Ophthalmology,4.2,TRUE,medium,0.602,600001,12.937971,80.274406
727,Sri Pediatrics Medical Center,Chennai,Tier-1,Pediatrics,3.5,TRUE,medium,0.49,600006,13.162516,80.195547
728,Chennai Nephrology Hospital,Chennai,Tier-1,Nephrology,4.2,FALSE,high,0.831,600014,12.988068,80.13547
729,Chennai Cardiology Super Speciality Hospital,Chennai,Tier-1,Cardiology,4.3,TRUE,high,0.829,600001,12.958449,80.227715
730,Chennai Oncology Hospital,Chennai,Tier-1,Oncology,4.3,TRUE,high,0.856,600006,12.917429,80.103594
731,Kamineni General Medicine Clinic,Chennai,Tier-1,General Medicine,4.5,TRUE,high,0.893,600090,12.950046,80.155962
732,Care General Medicine Institute,Chennai,Tier-1,General Medicine,3,FALSE,low,0.107,600034,13.066093,80.121304
733,Care Pediatrics Hospital,Chennai,Tier-1,Pediatrics,4.4,TRUE,high,0.767,600014,13.163653,80.299752
734,SAL Neurology Medical Center,Chennai,Tier-1,Neurology,4.4,TRUE,high,0.966,600002,13.106235,80.270023
735,KIMS Ophthalmology Medical Center,Chennai,Tier-1,Ophthalmology,3.8,TRUE,medium,0.61,600034,12.95345,80.251537
736,National Ophthalmology Hospital,Chennai,Tier-1,Ophthalmology,3.4,TRUE,low,0.369,600034,12.901084,80.203587
737,Chennai Gynaecology Medical Center,Chennai,Tier-1,Gynaecology,3,FALSE,low,0.112,600014,12.970162,80.172281
738,KIMS Gynaecology Clinic,Chennai,Tier-1,Gynaecology,4.3,TRUE,high,0.797,600004,13.069177,80.218949
739,Poona Gynaecology Institute,Chennai,Tier-1,Gynaecology,3.7,FALSE,medium,0.638,600014,13.034954,80.185097
740,Yashoda ENT Institute,Chennai,Tier-1,ENT,3.6,TRUE,medium,0.449,600001,13.126721,80.116022
741,Care General Medicine Super Speciality Hospital,Chennai,Tier-1,General Medicine,4.4,TRUE,high,0.792,600002,13.03011,80.15778
742,Chennai ENT Institute,Chennai,Tier-1,ENT,3.9,TRUE,high,0.726,600090,13.185462,80.116256
743,Continental Dermatology Hospital,Chennai,Tier-1,Dermatology,3.8,FALSE,low,0.389,600034,13.027633,80.1303
744,Chennai General Medicine Medical Center,Chennai,Tier-1,General Medicine,3.9,TRUE,high,0.747,600034,13.020624,80.162747
745,Fortis Neurology Super Speciality Hospital,Chennai,Tier-1,Neurology,4.3,TRUE,high,0.876,600001,12.994012,80.232308
746,Chennai Dermatology Hospital,Chennai,Tier-1,Dermatology,3.8,TRUE,medium,0.601,600090,13.157231,80.277568
747,National Gynaecology Super Speciality Hospital,Chennai,Tier-1,Gynaecology,4.4,TRUE,high,0.971,600014,13.15458,80.295297
748,Sterling Nephrology Super Speciality Hospital,Chennai,Tier-1,Nephrology,3.1,FALSE,low,0.019,600001,12.906924,80.293581
749,Poona General Medicine Super Speciality Hospital,Chennai,Tier-1,General Medicine,4.1,TRUE,high,0.865,600001,12.903297,80.195853
750,Care Psychiatry Clinic,Chennai,Tier-1,Psychiatry,4.1,TRUE,high,0.851,600002,13.198528,80.181778
751,Yashoda Pediatrics Super Speciality Hospital,Kolkata,Tier-1,Pediatrics,3.2,FALSE,low,0.321,700001,22.495755,88.320821
752,Kamineni Pediatrics Clinic,Kolkata,Tier-1,Pediatrics,4.5,TRUE,high,0.867,700016,22.594262,88.393493
753,Kolkata Gastroenterology Super Speciality Hospital,Kolkata,Tier-1,Gastroenterology,4.3,TRUE,high,0.973,700001,22.625026,88.4145
754,Kolkata General Medicine Hospital,Kolkata,Tier-1,General Medicine,3.8,FALSE,medium,0.536,700002,22.524629,88.434718
755,Continental Cardiology Institute,Kolkata,Tier-1,Cardiology,4.1,FALSE,high,0.779,700012,22.563162,88.430151
756,Care Orthopedics Clinic,Kolkata,Tier-1,Orthopedics,3.7,FALSE,medium,0.476,700001,22.621549,88.391358
757,Kolkata Psychiatry Medical Center,Kolkata,Tier-1,Psychiatry,3.1,FALSE,low,0.102,700001,22.54645,88.398165
758,Kolkata Nephrology Medical Center,Kolkata,Tier-1,Nephrology,3.9,FALSE,medium,0.657,700071,22.599582,88.340598
759,Kolkata General Medicine Medical Center,Kolkata,Tier-1,General Medicine,4,TRUE,high,0.705,700020,22.505213,88.421155
760,Kolkata Neurology Healthcare,Kolkata,Tier-1,Neurology,4.4,TRUE,high,0.963,700001,22.452847,88.312537
761,Kolkata Neurology Institute,Kolkata,Tier-1,Neurology,4.5,TRUE,high,0.988,700020,22.61289,88.369116
762,Kolkata ENT Medical Center,Kolkata,Tier-1,ENT,3.9,TRUE,high,0.765,700016,22.618498,88.402816
763,Kolkata ENT Healthcare,Kolkata,Tier-1,ENT,4.2,FALSE,high,0.963,700001,22.505059,88.416718
764,Rainbow General Medicine Medical Center,Kolkata,Tier-1,General Medicine,4.1,TRUE,high,0.821,700091,22.494184,88.444088
765,Sterling Oncology Institute,Kolkata,Tier-1,Oncology,3.9,TRUE,medium,0.51,700091,22.61817,88.403793
766,Kolkata Gynaecology Super Speciality Hospital,Kolkata,Tier-1,Gynaecology,4.2,TRUE,high,0.91,700016,22.461791,88.432624
767,Care Gynaecology Super Speciality Hospital,Kolkata,Tier-1,Gynaecology,3.3,FALSE,low,0.175,700091,22.603423,88.385059
768,Sri Urology Hospital,Kolkata,Tier-1,Urology,4.1,TRUE,high,0.918,700012,22.605214,88.440795
769,Kolkata Cardiology Super Speciality Hospital,Kolkata,Tier-1,Cardiology,4.1,FALSE,medium,0.595,700071,22.549103,88.344062
770,HCG Cardiology Medical Center,Kolkata,Tier-1,Cardiology,3.9,FALSE,medium,0.65,700091,22.644027,88.345558
771,Kolkata Pediatrics Clinic,Kolkata,Tier-1,Pediatrics,3.3,FALSE,low,0.296,700001,22.638147,88.359816
772,Global Ophthalmology Healthcare,Kolkata,Tier-1,Ophthalmology,4.2,TRUE,high,0.883,700091,22.463978,88.378807
773,Care Gynaecology Super Speciality Hospital,Kolkata,Tier-1,Gynaecology,3.2,FALSE,low,0.343,700071,22.597004,88.396564
774,Care Pediatrics Clinic,Kolkata,Tier-1,Pediatrics,4.3,TRUE,high,0.843,700071,22.551052,88.42029
775,Kolkata Pediatrics Healthcare,Kolkata,Tier-1,Pediatrics,3,TRUE,low,0.152,700002,22.541884,88.322746
776,Kolkata Ophthalmology Clinic,Kolkata,Tier-1,Ophthalmology,4.5,TRUE,high,0.844,700020,22.502831,88.427215
777,Rainbow Urology Healthcare,Kolkata,Tier-1,Urology,4.2,TRUE,high,0.833,700020,22.502788,88.353038
778,Kolkata Cardiology Hospital,Kolkata,Tier-1,Cardiology,4,TRUE,high,0.705,700071,22.567765,88.353655
779,Ruby Dermatology Hospital,Kolkata,Tier-1,Dermatology,4.5,TRUE,high,0.921,700002,22.510231,88.362472
780,Prime Gastroenterology Medical Center,Kolkata,Tier-1,Gastroenterology,3.2,FALSE,low,0.217,700001,22.616026,88.380741
781,Sri Oncology Super Speciality Hospital,Kolkata,Tier-1,Oncology,4,FALSE,medium,0.511,700002,22.478815,88.373428
782,Deenanath Cardiology Healthcare,Kolkata,Tier-1,Cardiology,4.2,TRUE,high,0.849,700016,22.618877,88.438141
783,Sterling Pediatrics Super Speciality Hospital,Kolkata,Tier-1,Pediatrics,3.5,FALSE,low,0.144,700016,22.487955,88.362317
784,Sri Pediatrics Hospital,Kolkata,Tier-1,Pediatrics,4.3,TRUE,high,1,700001,22.555868,88.431279
785,Sterling Dermatology Hospital,Kolkata,Tier-1,Dermatology,3.7,FALSE,low,0.32,700071,22.639554,88.424288
786,Care Oncology Medical Center,Kolkata,Tier-1,Oncology,3.5,FALSE,medium,0.486,700071,22.520783,88.422852
787,Deenanath Urology Clinic,Kolkata,Tier-1,Urology,4.3,TRUE,high,0.843,700016,22.634437,88.429225
788,Kolkata Orthopedics Super Speciality Hospital,Kolkata,Tier-1,Orthopedics,3.1,FALSE,low,0.223,700012,22.450084,88.367663
789,Kolkata Orthopedics Hospital,Kolkata,Tier-1,Orthopedics,3.8,FALSE,medium,0.41,700001,22.600792,88.359623
790,Ruby Pediatrics Institute,Kolkata,Tier-1,Pediatrics,4.3,TRUE,high,0.867,700012,22.560714,88.396748
791,Kolkata Gastroenterology Hospital,Kolkata,Tier-1,Gastroenterology,3.4,TRUE,low,0.239,700016,22.62577,88.442935
792,KIMS Ophthalmology Super Speciality Hospital,Kolkata,Tier-1,Ophthalmology,4,TRUE,high,0.703,700002,22.626017,88.300765
793,National Urology Institute,Kolkata,Tier-1,Urology,4.2,TRUE,high,0.85,700091,22.52232,88.410727
794,Fortis Gynaecology Clinic,Kolkata,Tier-1,Gynaecology,3.5,TRUE,medium,0.492,700020,22.609828,88.38746
795,Deenanath General Medicine Clinic,Kolkata,Tier-1,General Medicine,4.3,TRUE,high,0.956,700012,22.485535,88.421904
796,Kolkata Dermatology Hospital,Kolkata,Tier-1,Dermatology,3,FALSE,low,0.023,700016,22.529288,88.446822
797,Sahyadri General Medicine Institute,Kolkata,Tier-1,General Medicine,3.1,TRUE,low,0.211,700091,22.585232,88.417596
798,Sterling ENT Medical Center,Kolkata,Tier-1,ENT,3.7,FALSE,medium,0.584,700002,22.57624,88.432974
799,Sahyadri Orthopedics Hospital,Kolkata,Tier-1,Orthopedics,4.1,TRUE,high,0.776,700001,22.506072,88.433828
800,HCG Ophthalmology Institute,Kolkata,Tier-1,Ophthalmology,3.6,FALSE,medium,0.526,700016,22.647295,88.340428
801,KIMS Neurology Medical Center,Kolkata,Tier-1,Neurology,3.8,TRUE,high,0.716,700091,22.5357,88.351985
802,Sahyadri Cardiology Hospital,Kolkata,Tier-1,Cardiology,4.1,TRUE,high,0.714,700001,22.57453,88.361408
803,Kolkata Cardiology Medical Center,Kolkata,Tier-1,Cardiology,4.7,TRUE,high,0.994,700071,22.47932,88.377545
804,City Orthopedics Institute,Kolkata,Tier-1,Orthopedics,3.7,FALSE,medium,0.49,700001,22.481668,88.395163
805,Kolkata Orthopedics Healthcare,Kolkata,Tier-1,Orthopedics,3.7,TRUE,medium,0.544,700091,22.560513,88.361284
806,Unity Pediatrics Healthcare,Kolkata,Tier-1,Pediatrics,3.7,FALSE,low,0.316,700016,22.611747,88.374202
807,Kolkata Oncology Super Speciality Hospital,Kolkata,Tier-1,Oncology,3.8,FALSE,medium,0.431,700002,22.503667,88.370941
808,Unity Psychiatry Super Speciality Hospital,Kolkata,Tier-1,Psychiatry,4.4,TRUE,high,0.939,700001,22.543862,88.389714
809,Kolkata Urology Institute,Kolkata,Tier-1,Urology,3.9,TRUE,high,0.757,700016,22.633349,88.311698
810,Kolkata Cardiology Healthcare,Kolkata,Tier-1,Cardiology,4.8,TRUE,high,1,700002,22.585703,88.337064
811,City ENT Super Speciality Hospital,Kolkata,Tier-1,ENT,4.4,TRUE,high,0.805,700071,22.590949,88.323849
812,KIMS Gastroenterology Institute,Kolkata,Tier-1,Gastroenterology,4.1,TRUE,high,0.817,700002,22.626756,88.307698
813,Rainbow Neurology Medical Center,Kolkata,Tier-1,Neurology,3.5,TRUE,low,0.22,700001,22.535373,88.376408
814,Care ENT Super Speciality Hospital,Kolkata,Tier-1,ENT,4.3,TRUE,high,0.846,700071,22.57065,88.374106
815,Care General Medicine Super Speciality Hospital,Kolkata,Tier-1,General Medicine,3.9,TRUE,high,0.75,700001,22.465595,88.326293
816,Ruby Neurology Medical Center,Kolkata,Tier-1,Neurology,4.3,TRUE,high,0.725,700016,22.521679,88.351779
817,Kamineni Gastroenterology Hospital,Kolkata,Tier-1,Gastroenterology,3.9,FALSE,medium,0.625,700020,22.483121,88.404344
818,Unity Cardiology Medical Center,Kolkata,Tier-1,Cardiology,3.9,TRUE,high,0.785,700001,22.457573,88.42275
819,Ruby Pediatrics Institute,Kolkata,Tier-1,Pediatrics,3.6,TRUE,medium,0.519,700071,22.619617,88.442376
820,KIMS Pediatrics Healthcare,Kolkata,Tier-1,Pediatrics,4,TRUE,high,0.845,700001,22.542349,88.339054
821,Kolkata Orthopedics Super Speciality Hospital,Kolkata,Tier-1,Orthopedics,4.1,TRUE,high,0.791,700002,22.532493,88.35219
822,Kolkata Gynaecology Hospital,Kolkata,Tier-1,Gynaecology,4,TRUE,high,0.746,700012,22.506102,88.327818
823,Kamineni Cardiology Super Speciality Hospital,Kolkata,Tier-1,Cardiology,4.3,TRUE,high,0.728,700091,22.63814,88.403294
824,Sterling Gastroenterology Clinic,Kolkata,Tier-1,Gastroenterology,3.6,FALSE,low,0.366,700002,22.584853,88.433855
825,Kolkata Gynaecology Clinic,Kolkata,Tier-1,Gynaecology,3.2,FALSE,low,0.103,700001,22.642995,88.445842
826,Poona Orthopedics Super Speciality Hospital,Kolkata,Tier-1,Orthopedics,3.5,FALSE,low,0.232,700001,22.457695,88.422948
827,Kolkata Pediatrics Institute,Kolkata,Tier-1,Pediatrics,3.7,TRUE,low,0.321,700012,22.564756,88.395868
828,Kolkata Cardiology Institute,Kolkata,Tier-1,Cardiology,3.7,FALSE,medium,0.482,700012,22.613186,88.359935
829,Poona Cardiology Medical Center,Kolkata,Tier-1,Cardiology,3.6,TRUE,medium,0.561,700071,22.481306,88.303383
830,Apollo General Medicine Institute,Kolkata,Tier-1,General Medicine,3.5,FALSE,low,0.175,700020,22.471924,88.373224
831,Ruby Cardiology Institute,Kolkata,Tier-1,Cardiology,3.6,FALSE,medium,0.548,700012,22.53016,88.445996
832,Yashoda Orthopedics Super Speciality Hospital,Kolkata,Tier-1,Orthopedics,3.8,FALSE,medium,0.621,700020,22.595832,88.369467
833,Kolkata Oncology Super Speciality Hospital,Kolkata,Tier-1,Oncology,4.4,TRUE,high,0.994,700012,22.4787,88.30481
834,Kolkata Gastroenterology Institute,Kolkata,Tier-1,Gastroenterology,3,FALSE,low,0.029,700020,22.627457,88.343687
835,Kolkata Neurology Hospital,Kolkata,Tier-1,Neurology,3.7,TRUE,medium,0.574,700012,22.64658,88.388432
836,Kolkata Oncology Medical Center,Kolkata,Tier-1,Oncology,4,FALSE,medium,0.565,700001,22.450073,88.418085
837,Kamineni Pediatrics Healthcare,Kolkata,Tier-1,Pediatrics,3.2,FALSE,low,0.319,700020,22.550104,88.399843
838,Ruby Orthopedics Institute,Kolkata,Tier-1,Orthopedics,4.3,FALSE,high,0.922,700012,22.491981,88.329676
839,Sahyadri Orthopedics Healthcare,Kolkata,Tier-1,Orthopedics,4,TRUE,high,0.879,700016,22.478402,88.357202
840,Metro Orthopedics Hospital,Kolkata,Tier-1,Orthopedics,3.9,FALSE,high,0.714,700001,22.642325,88.302961
841,Kolkata Urology Hospital,Kolkata,Tier-1,Urology,4.2,TRUE,high,0.772,700020,22.467339,88.371953
842,SAL Orthopedics Institute,Kolkata,Tier-1,Orthopedics,3.6,FALSE,medium,0.513,700091,22.510958,88.420688
843,Global Nephrology Hospital,Kolkata,Tier-1,Nephrology,3.2,TRUE,low,0.307,700020,22.649512,88.342674
844,Fortis General Medicine Medical Center,Kolkata,Tier-1,General Medicine,4.3,FALSE,high,0.899,700001,22.556319,88.322271
845,Sterling General Medicine Clinic,Kolkata,Tier-1,General Medicine,4.1,TRUE,high,0.729,700012,22.4573,88.417483
846,KIMS General Medicine Healthcare,Kolkata,Tier-1,General Medicine,4,TRUE,medium,0.577,700012,22.451378,88.361095
847,Yashoda Gynaecology Super Speciality Hospital,Kolkata,Tier-1,Gynaecology,3.9,TRUE,medium,0.543,700016,22.562987,88.416969
848,Sterling Pediatrics Medical Center,Kolkata,Tier-1,Pediatrics,3.9,TRUE,high,0.734,700002,22.635591,88.352634
849,Unity General Medicine Institute,Kolkata,Tier-1,General Medicine,3.6,FALSE,medium,0.442,700001,22.557229,88.426201
850,Kolkata Ophthalmology Healthcare,Kolkata,Tier-1,Ophthalmology,4.1,TRUE,high,0.856,700016,22.496978,88.329332
851,Continental Urology Super Speciality Hospital,Kolkata,Tier-1,Urology,3.3,FALSE,low,0.362,700016,22.629062,88.343021
852,Metro Gastroenterology Super Speciality Hospital,Kolkata,Tier-1,Gastroenterology,4.4,FALSE,high,0.794,700001,22.525925,88.381411
853,Kolkata Oncology Healthcare,Kolkata,Tier-1,Oncology,4.4,TRUE,high,0.764,700091,22.536625,88.305791
854,Sterling General Medicine Super Speciality Hospital,Kolkata,Tier-1,General Medicine,3.6,FALSE,medium,0.444,700071,22.530114,88.339904
855,Apollo Cardiology Hospital,Kolkata,Tier-1,Cardiology,3.8,TRUE,high,0.758,700091,22.520885,88.367357
856,Kolkata Pediatrics Hospital,Kolkata,Tier-1,Pediatrics,4.1,TRUE,medium,0.632,700001,22.574183,88.315952
857,Metro General Medicine Healthcare,Kolkata,Tier-1,General Medicine,3.9,FALSE,medium,0.688,700016,22.539142,88.336364
858,Rainbow Dermatology Super Speciality Hospital,Kolkata,Tier-1,Dermatology,3.8,TRUE,medium,0.585,700012,22.467251,88.448231
859,Kolkata Orthopedics Medical Center,Kolkata,Tier-1,Orthopedics,4.6,TRUE,high,0.877,700016,22.512805,88.345264
860,Fortis Orthopedics Institute,Kolkata,Tier-1,Orthopedics,3.2,TRUE,low,0.112,700071,22.515943,88.428207
861,Kolkata Oncology Healthcare,Kolkata,Tier-1,Oncology,4.1,TRUE,high,0.775,700012,22.521701,88.444801
862,Prime Pediatrics Medical Center,Kolkata,Tier-1,Pediatrics,3.8,TRUE,medium,0.531,700016,22.574533,88.372109
863,National General Medicine Healthcare,Kolkata,Tier-1,General Medicine,3.2,FALSE,low,0.296,700016,22.58421,88.356388
864,Continental Gynaecology Super Speciality Hospital,Kolkata,Tier-1,Gynaecology,3.7,FALSE,medium,0.521,700020,22.562017,88.319447
865,Kolkata Gynaecology Institute,Kolkata,Tier-1,Gynaecology,4.7,FALSE,high,0.972,700002,22.562516,88.447775
866,KIMS Pulmonology Clinic,Kolkata,Tier-1,Pulmonology,4.4,TRUE,high,0.984,700012,22.492063,88.359318
867,Metro General Medicine Hospital,Kolkata,Tier-1,General Medicine,3.7,FALSE,medium,0.572,700002,22.563586,88.318149
868,Rainbow Pediatrics Healthcare,Kolkata,Tier-1,Pediatrics,4.8,TRUE,high,0.991,700071,22.46386,88.382728
869,Kolkata Neurology Medical Center,Kolkata,Tier-1,Neurology,3.6,FALSE,low,0.348,700020,22.458523,88.441606
870,Kolkata Ophthalmology Super Speciality Hospital,Kolkata,Tier-1,Ophthalmology,3.8,TRUE,medium,0.519,700091,22.594067,88.389028
871,Kolkata Ophthalmology Clinic,Kolkata,Tier-1,Ophthalmology,3.3,TRUE,low,0.219,700091,22.550174,88.310881
872,Yashoda Orthopedics Institute,Kolkata,Tier-1,Orthopedics,4.5,TRUE,high,0.956,700002,22.473263,88.430722
873,Kolkata Pediatrics Clinic,Kolkata,Tier-1,Pediatrics,4.5,TRUE,high,0.848,700001,22.630848,88.406853
874,Prime Gastroenterology Healthcare,Kolkata,Tier-1,Gastroenterology,4.8,TRUE,high,1,700012,22.55238,88.417754
875,Kamineni Orthopedics Institute,Kolkata,Tier-1,Orthopedics,3.1,TRUE,low,0.163,700016,22.607889,88.333646
876,Ruby Orthopedics Hospital,Kolkata,Tier-1,Orthopedics,4.6,TRUE,high,0.998,700016,22.45581,88.352207
877,Kolkata Orthopedics Institute,Kolkata,Tier-1,Orthopedics,3.6,TRUE,medium,0.505,700016,22.64553,88.412499
878,Prime General Medicine Hospital,Kolkata,Tier-1,General Medicine,3.1,FALSE,low,0.015,700091,22.606777,88.342901
879,Kolkata Dermatology Hospital,Kolkata,Tier-1,Dermatology,4.8,FALSE,high,1,700020,22.505481,88.306879
880,HCG General Medicine Institute,Kolkata,Tier-1,General Medicine,3.9,TRUE,medium,0.495,700002,22.55562,88.429882
881,Kolkata Neurology Healthcare,Kolkata,Tier-1,Neurology,4,FALSE,medium,0.635,700012,22.461895,88.357956
882,Kolkata Cardiology Super Speciality Hospital,Kolkata,Tier-1,Cardiology,4.1,TRUE,high,0.912,700002,22.523505,88.433525
883,Continental Psychiatry Super Speciality Hospital,Kolkata,Tier-1,Psychiatry,4.2,TRUE,medium,0.653,700071,22.531936,88.429363
884,Kamineni General Medicine Hospital,Kolkata,Tier-1,General Medicine,3.9,TRUE,high,0.766,700020,22.524042,88.434557
885,Kolkata Urology Hospital,Kolkata,Tier-1,Urology,3.2,FALSE,low,0.15,700071,22.469826,88.380388
886,Prime Orthopedics Medical Center,Kolkata,Tier-1,Orthopedics,4.1,TRUE,high,0.878,700012,22.455676,88.343233
887,Care Neurology Clinic,Kolkata,Tier-1,Neurology,3.9,TRUE,high,0.753,700002,22.524934,88.330707
888,Kolkata Neurology Clinic,Kolkata,Tier-1,Neurology,4.3,TRUE,high,0.983,700001,22.488288,88.342693
889,Kolkata Gynaecology Healthcare,Kolkata,Tier-1,Gynaecology,4.7,TRUE,high,0.941,700071,22.633041,88.368937
890,Continental General Medicine Healthcare,Kolkata,Tier-1,General Medicine,3.4,FALSE,low,0.208,700001,22.569718,88.320814
891,Prime ENT Healthcare,Kolkata,Tier-1,ENT,3.5,FALSE,medium,0.454,700001,22.525646,88.345542
892,Kolkata Urology Institute,Kolkata,Tier-1,Urology,3.2,FALSE,low,0.014,700012,22.567214,88.433226
893,HCG Pediatrics Hospital,Kolkata,Tier-1,Pediatrics,3.5,TRUE,medium,0.505,700071,22.578032,88.383621
894,Sri Orthopedics Super Speciality Hospital,Kolkata,Tier-1,Orthopedics,4.3,TRUE,high,0.969,700071,22.46919,88.315553
895,Kolkata General Medicine Institute,Kolkata,Tier-1,General Medicine,4.2,TRUE,high,0.767,700002,22.620886,88.379484
896,Kolkata Orthopedics Clinic,Kolkata,Tier-1,Orthopedics,3.8,TRUE,high,0.727,700016,22.598128,88.394501
897,Yashoda Cardiology Super Speciality Hospital,Kolkata,Tier-1,Cardiology,4,TRUE,medium,0.639,700020,22.644428,88.331827
898,Care Pediatrics Healthcare,Kolkata,Tier-1,Pediatrics,4.5,TRUE,high,0.857,700071,22.453953,88.348828
899,Kolkata Orthopedics Healthcare,Kolkata,Tier-1,Orthopedics,4.2,TRUE,high,0.909,700001,22.499806,88.345757
900,Sahyadri Orthopedics Hospital,Kolkata,Tier-1,Orthopedics,3.2,FALSE,low,0.245,700020,22.564465,88.329544
901,Continental Psychiatry Super Speciality Hospital,Pune,Tier-1,Psychiatry,4,FALSE,medium,0.596,411045,18.406734,73.903316
902,Pune Dermatology Healthcare,Pune,Tier-1,Dermatology,4.5,TRUE,high,0.908,411011,18.481352,73.798467
903,Kamineni Neurology Hospital,Pune,Tier-1,Neurology,4.2,TRUE,high,0.764,411001,18.443422,73.936368
904,Metro Oncology Clinic,Pune,Tier-1,Oncology,4.3,TRUE,high,0.774,411001,18.496875,73.882883
905,Sahyadri Orthopedics Clinic,Pune,Tier-1,Orthopedics,3.9,TRUE,medium,0.469,411030,18.503156,73.841182
906,City Cardiology Super Speciality Hospital,Pune,Tier-1,Cardiology,3,FALSE,low,0.057,411030,18.555116,73.773116
